postZZZS,addressZZZS,lat,lon,street,streetAlt,housenumber,housenumberAppendix,city,cityAlt,municipalityPart,municipality,zipCode,zipName,statisticalRegion
1000 LJUBLJANA,ALJAŽEVA ULICA 30,46.06839,14.49548,Aljaževa ulica,,30,,Ljubljana,,Četrtna skupnost Šiška,Ljubljana,1000,Ljubljana,Osrednjeslovenska
1000 LJUBLJANA,AMERIŠKA ULICA 13,46.06609,14.54281,Ameriška ulica,,13,,Ljubljana,,Četrtna skupnost Jarše,Ljubljana,1000,Ljubljana,Osrednjeslovenska
1000 LJUBLJANA,AŠKERČEVA CESTA 4,46.04687,14.49913,Aškerčeva cesta,,4,,Ljubljana,,Četrtna skupnost Center,Ljubljana,1000,Ljubljana,Osrednjeslovenska
1000 LJUBLJANA,BARVARSKA STEZA 4,46.05086,14.51237,Barvarska steza,,4,,Ljubljana,,Četrtna skupnost Center,Ljubljana,1000,Ljubljana,Osrednjeslovenska
1000 LJUBLJANA,BEETHOVNOVA ULICA 6,46.05163,14.50200,Beethovnova ulica,,6,,Ljubljana,,Četrtna skupnost Center,Ljubljana,1000,Ljubljana,Osrednjeslovenska
1000 LJUBLJANA,BOHORIČEVA ULICA 5,46.05543,14.52005,Bohoričeva ulica,,5,,Ljubljana,,Četrtna skupnost Center,Ljubljana,1000,Ljubljana,Osrednjeslovenska
1000 LJUBLJANA,BRAJNIKOVA ULICA 20,46.07204,14.46614,Brajnikova ulica,,20,,Ljubljana,,Četrtna skupnost Šiška,Ljubljana,1000,Ljubljana,Osrednjeslovenska
1000 LJUBLJANA,BRATOVŠEVA PLOŠČAD 30,46.08968,14.50886,Bratovševa ploščad,,30,,Ljubljana,,Četrtna skupnost Posavje,Ljubljana,1000,Ljubljana,Osrednjeslovenska
1000 LJUBLJANA,CELOVŠKA CESTA 111 C,46.06906,14.48980,Celovška cesta,,111,C,Ljubljana,,Četrtna skupnost Šiška,Ljubljana,1000,Ljubljana,Osrednjeslovenska
1000 LJUBLJANA,CELOVŠKA CESTA 142,46.07296,14.48725,Celovška cesta,,142,,Ljubljana,,Četrtna skupnost Šiška,Ljubljana,1000,Ljubljana,Osrednjeslovenska
1000 LJUBLJANA,CELOVŠKA CESTA 280,46.08748,14.47448,Celovška cesta,,280,,Ljubljana,,Četrtna skupnost Dravlje,Ljubljana,1000,Ljubljana,Osrednjeslovenska
1000 LJUBLJANA,CELOVŠKA CESTA 4,46.05730,14.50122,Celovška cesta,,4,,Ljubljana,,Četrtna skupnost Center,Ljubljana,1000,Ljubljana,Osrednjeslovenska
1000 LJUBLJANA,CELOVŠKA CESTA 42,46.06210,14.49618,Celovška cesta,,42,,Ljubljana,,Četrtna skupnost Šiška,Ljubljana,1000,Ljubljana,Osrednjeslovenska
1000 LJUBLJANA,CESTA LJUBLJANSKE BRIGADE 23,46.08665,14.47871,Cesta Ljubljanske brigade,,23,,Ljubljana,,Četrtna skupnost Dravlje,Ljubljana,1000,Ljubljana,Osrednjeslovenska
1000 LJUBLJANA,CESTA LJUBLJANSKE BRIGADE 33,46.08830,14.47718,Cesta Ljubljanske brigade,,33,,Ljubljana,,Četrtna skupnost Dravlje,Ljubljana,1000,Ljubljana,Osrednjeslovenska
1000 LJUBLJANA,CESTA NA BOKALCE 51,46.05096,14.44808,Cesta na Bokalce,,51,,Ljubljana,,Četrtna skupnost Rožnik,Ljubljana,1000,Ljubljana,Osrednjeslovenska
1000 LJUBLJANA,CESTA NA BRDO 43,46.04527,14.47120,Cesta na Brdo,,43,,Ljubljana,,Četrtna skupnost Rožnik,Ljubljana,1000,Ljubljana,Osrednjeslovenska
1000 LJUBLJANA,CESTA NA BRDO 63,46.04564,14.46976,Cesta na Brdo,,63,,Ljubljana,,Četrtna skupnost Rožnik,Ljubljana,1000,Ljubljana,Osrednjeslovenska
1000 LJUBLJANA,CESTA NA ROŽNIK 17,46.05380,14.48571,Cesta na Rožnik,,17,,Ljubljana,,Četrtna skupnost Rožnik,Ljubljana,1000,Ljubljana,Osrednjeslovenska
1000 LJUBLJANA,CESTA V MESTNI LOG 55,46.03620,14.48957,Cesta v Mestni log,,55,,Ljubljana,,Četrtna skupnost Trnovo,Ljubljana,1000,Ljubljana,Osrednjeslovenska
1000 LJUBLJANA,DALMATINOVA ULICA 10,46.05355,14.50782,Dalmatinova ulica,,10,,Ljubljana,,Četrtna skupnost Center,Ljubljana,1000,Ljubljana,Osrednjeslovenska
1000 LJUBLJANA,DALMATINOVA ULICA 7,46.05425,14.50563,Dalmatinova ulica,,7,,Ljubljana,,Četrtna skupnost Center,Ljubljana,1000,Ljubljana,Osrednjeslovenska
1000 LJUBLJANA,DERČEVA ULICA 35,46.07120,14.48296,Derčeva ulica,,35,,Ljubljana,,Četrtna skupnost Šiška,Ljubljana,1000,Ljubljana,Osrednjeslovenska
1000 LJUBLJANA,DERČEVA ULICA 5,46.06846,14.48800,Derčeva ulica,,5,,Ljubljana,,Četrtna skupnost Šiška,Ljubljana,1000,Ljubljana,Osrednjeslovenska
1000 LJUBLJANA,DEVINSKA ULICA 1,46.04036,14.49910,Devinska ulica,,1,,Ljubljana,,Četrtna skupnost Trnovo,Ljubljana,1000,Ljubljana,Osrednjeslovenska
1000 LJUBLJANA,DOLENJSKA CESTA 46,46.03749,14.51913,Dolenjska cesta,,46,,Ljubljana,,Četrtna skupnost Rudnik,Ljubljana,1000,Ljubljana,Osrednjeslovenska
1000 LJUBLJANA,DUNAJSKA CESTA 109,46.07429,14.51020,Dunajska cesta,,109,,Ljubljana,,Četrtna skupnost Bežigrad,Ljubljana,1000,Ljubljana,Osrednjeslovenska
1000 LJUBLJANA,DUNAJSKA CESTA 129,46.07794,14.51189,Dunajska cesta,,129,,Ljubljana,,Četrtna skupnost Bežigrad,Ljubljana,1000,Ljubljana,Osrednjeslovenska
1000 LJUBLJANA,DUNAJSKA CESTA 152,46.08125,14.51349,Dunajska cesta,,152,,Ljubljana,,Četrtna skupnost Bežigrad,Ljubljana,1000,Ljubljana,Osrednjeslovenska
1000 LJUBLJANA,DUNAJSKA CESTA 186,46.08667,14.51460,Dunajska cesta,,186,,Ljubljana,,Četrtna skupnost Posavje,Ljubljana,1000,Ljubljana,Osrednjeslovenska
1000 LJUBLJANA,DUNAJSKA CESTA 198,46.08740,14.51458,Dunajska cesta,,198,,Ljubljana,,Četrtna skupnost Posavje,Ljubljana,1000,Ljubljana,Osrednjeslovenska
1000 LJUBLJANA,DUNAJSKA CESTA 22,46.06212,14.50930,Dunajska cesta,,22,,Ljubljana,,Četrtna skupnost Bežigrad,Ljubljana,1000,Ljubljana,Osrednjeslovenska
1000 LJUBLJANA,DUNAJSKA CESTA 31,46.06221,14.50753,Dunajska cesta,,31,,Ljubljana,,Četrtna skupnost Bežigrad,Ljubljana,1000,Ljubljana,Osrednjeslovenska
1000 LJUBLJANA,DUNAJSKA CESTA 49,46.06449,14.50840,Dunajska cesta,,49,,Ljubljana,,Četrtna skupnost Bežigrad,Ljubljana,1000,Ljubljana,Osrednjeslovenska
1000 LJUBLJANA,DUNAJSKA CESTA 5,46.05937,14.50613,Dunajska cesta,,5,,Ljubljana,,Četrtna skupnost Bežigrad,Ljubljana,1000,Ljubljana,Osrednjeslovenska
1000 LJUBLJANA,DUNAJSKA CESTA 56,46.06546,14.50982,Dunajska cesta,,56,,Ljubljana,,Četrtna skupnost Bežigrad,Ljubljana,1000,Ljubljana,Osrednjeslovenska
1000 LJUBLJANA,DUNAJSKA CESTA 59,46.06581,14.50894,Dunajska cesta,,59,,Ljubljana,,Četrtna skupnost Bežigrad,Ljubljana,1000,Ljubljana,Osrednjeslovenska
1000 LJUBLJANA,DUNAJSKA CESTA 88,46.07082,14.51089,Dunajska cesta,,88,,Ljubljana,,Četrtna skupnost Bežigrad,Ljubljana,1000,Ljubljana,Osrednjeslovenska
1000 LJUBLJANA,EIPPROVA ULICA 3,46.04327,14.50498,Eipprova ulica,,3,,Ljubljana,,Četrtna skupnost Trnovo,Ljubljana,1000,Ljubljana,Osrednjeslovenska
1000 LJUBLJANA,FILIPIČEVA ULICA 1,46.04113,14.49404,Filipičeva ulica,,1,,Ljubljana,,Četrtna skupnost Trnovo,Ljubljana,1000,Ljubljana,Osrednjeslovenska
1000 LJUBLJANA,FINŽGARJEVA ULICA 4,46.04417,14.49854,Finžgarjeva ulica,,4,,Ljubljana,,Četrtna skupnost Vič,Ljubljana,1000,Ljubljana,Osrednjeslovenska
1000 LJUBLJANA,FRANKOPANSKA ULICA 18,46.06195,14.49891,Frankopanska ulica,,18,,Ljubljana,,Četrtna skupnost Šiška,Ljubljana,1000,Ljubljana,Osrednjeslovenska
1000 LJUBLJANA,GABRŠČKOVA ULICA 91,46.04743,14.46956,Gabrščkova ulica,,91,,Ljubljana,,Četrtna skupnost Rožnik,Ljubljana,1000,Ljubljana,Osrednjeslovenska
1000 LJUBLJANA,GASPARIJEVA ULICA 12,46.05233,14.52825,Gasparijeva ulica,,12,,Ljubljana,,Četrtna skupnost Center,Ljubljana,1000,Ljubljana,Osrednjeslovenska
1000 LJUBLJANA,GASPARIJEVA ULICA 2,46.05338,14.52867,Gasparijeva ulica,,2,,Ljubljana,,Četrtna skupnost Center,Ljubljana,1000,Ljubljana,Osrednjeslovenska
1000 LJUBLJANA,GLONARJEVA ULICA 4,46.04965,14.52687,Glonarjeva ulica,,4,,Ljubljana,,Četrtna skupnost Center,Ljubljana,1000,Ljubljana,Osrednjeslovenska
1000 LJUBLJANA,GOGALOVA ULICA 15,46.08715,14.51076,Gogalova ulica,,15,,Ljubljana,,Četrtna skupnost Posavje,Ljubljana,1000,Ljubljana,Osrednjeslovenska
1000 LJUBLJANA,GOSPOSVETSKA CESTA 9,46.05509,14.50278,Gosposvetska cesta,,9,,Ljubljana,,Četrtna skupnost Center,Ljubljana,1000,Ljubljana,Osrednjeslovenska
1000 LJUBLJANA,GOTSKA ULICA 18,46.07619,14.47848,Gotska ulica,,18,,Ljubljana,,Četrtna skupnost Šiška,Ljubljana,1000,Ljubljana,Osrednjeslovenska
1000 LJUBLJANA,GREGORČIČEVA ULICA 11,46.04822,14.50041,Gregorčičeva ulica,,11,,Ljubljana,,Četrtna skupnost Center,Ljubljana,1000,Ljubljana,Osrednjeslovenska
1000 LJUBLJANA,GREGORČIČEVA ULICA 9 A,46.04817,14.50067,Gregorčičeva ulica,,9,A,Ljubljana,,Četrtna skupnost Center,Ljubljana,1000,Ljubljana,Osrednjeslovenska
1000 LJUBLJANA,GROHARJEVA CESTA 11,46.04479,14.49729,Groharjeva cesta,,11,,Ljubljana,,Četrtna skupnost Vič,Ljubljana,1000,Ljubljana,Osrednjeslovenska
1000 LJUBLJANA,GRŠKA ULICA 13,46.06621,14.54495,Grška ulica,,13,,Ljubljana,,Četrtna skupnost Jarše,Ljubljana,1000,Ljubljana,Osrednjeslovenska
1000 LJUBLJANA,HACQUETOVA ULICA 6,46.06035,14.51545,Hacquetova ulica,,6,,Ljubljana,,Četrtna skupnost Bežigrad,Ljubljana,1000,Ljubljana,Osrednjeslovenska
1000 LJUBLJANA,HRENOVA ULICA 19,46.04438,14.50677,Hrenova ulica,,19,,Ljubljana,,Četrtna skupnost Center,Ljubljana,1000,Ljubljana,Osrednjeslovenska
1000 LJUBLJANA,HRUŠEVSKA CESTA 6 A,46.04676,14.54206,Hruševska cesta,,6,A,Ljubljana,,Četrtna skupnost Golovec,Ljubljana,1000,Ljubljana,Osrednjeslovenska
1000 LJUBLJANA,HUBADOVA ULICA 31,46.07760,14.50897,Hubadova ulica,,31,,Ljubljana,,Četrtna skupnost Bežigrad,Ljubljana,1000,Ljubljana,Osrednjeslovenska
1000 LJUBLJANA,KARLOVŠKA CESTA 10,46.04457,14.50967,Karlovška cesta,,10,,Ljubljana,,Četrtna skupnost Center,Ljubljana,1000,Ljubljana,Osrednjeslovenska
1000 LJUBLJANA,KLANČARJEVA ULICA 13,46.02575,14.54048,Klančarjeva ulica,,13,,Ljubljana,,Četrtna skupnost Rudnik,Ljubljana,1000,Ljubljana,Osrednjeslovenska
1000 LJUBLJANA,KLOPČIČEVA 1,46.08015,14.47740,Klopčičeva ulica,,1,,Ljubljana,,Četrtna skupnost Dravlje,Ljubljana,1000,Ljubljana,Osrednjeslovenska
1000 LJUBLJANA,KOGOVŠKOVA ULICA 1,46.07318,14.46775,Kogovškova ulica,,1,,Ljubljana,,Četrtna skupnost Šiška,Ljubljana,1000,Ljubljana,Osrednjeslovenska
1000 LJUBLJANA,KOLEZIJSKA ULICA 1 A,46.04290,14.50142,Kolezijska ulica,,1,A,Ljubljana,,Četrtna skupnost Trnovo,Ljubljana,1000,Ljubljana,Osrednjeslovenska
1000 LJUBLJANA,KOLEZIJSKA ULICA 25,46.04145,14.49750,Kolezijska ulica,,25,,Ljubljana,,Četrtna skupnost Trnovo,Ljubljana,1000,Ljubljana,Osrednjeslovenska
1000 LJUBLJANA,KOLINSKA ULICA 1,46.05983,14.52249,Kolinska ulica,,1,,Ljubljana,,Četrtna skupnost Jarše,Ljubljana,1000,Ljubljana,Osrednjeslovenska
1000 LJUBLJANA,KOMANOVA ULICA 1,46.08434,14.51257,Komanova ulica,,1,,Ljubljana,,Četrtna skupnost Posavje,Ljubljana,1000,Ljubljana,Osrednjeslovenska
1000 LJUBLJANA,KOMENSKEGA ULICA 11,46.05377,14.51028,Komenskega ulica,,11,,Ljubljana,,Četrtna skupnost Center,Ljubljana,1000,Ljubljana,Osrednjeslovenska
1000 LJUBLJANA,KOMENSKEGA ULICA 19,46.05341,14.51253,Komenskega ulica,,19,,Ljubljana,,Četrtna skupnost Center,Ljubljana,1000,Ljubljana,Osrednjeslovenska
1000 LJUBLJANA,KOMENSKEGA ULICA 32,46.05281,14.51176,Komenskega ulica,,32,,Ljubljana,,Četrtna skupnost Center,Ljubljana,1000,Ljubljana,Osrednjeslovenska
1000 LJUBLJANA,KOPITARJEVA ULICA 4,46.05131,14.51092,Kopitarjeva ulica,,4,,Ljubljana,,Četrtna skupnost Center,Ljubljana,1000,Ljubljana,Osrednjeslovenska
1000 LJUBLJANA,KOPRSKA ULICA 94 A,46.03394,14.48339,Koprska ulica,,94,A,Ljubljana,,Četrtna skupnost Trnovo,Ljubljana,1000,Ljubljana,Osrednjeslovenska
1000 LJUBLJANA,KORYTKOVA ULICA 29,46.05799,14.52368,Korytkova ulica,,29,,Ljubljana,,Četrtna skupnost Center,Ljubljana,1000,Ljubljana,Osrednjeslovenska
1000 LJUBLJANA,KORYTKOVA ULICA 30,46.05777,14.52384,Korytkova ulica,,30,,Ljubljana,,Četrtna skupnost Center,Ljubljana,1000,Ljubljana,Osrednjeslovenska
1000 LJUBLJANA,KOTNIKOVA ULICA 29,46.05681,14.51321,Kotnikova ulica,,29,,Ljubljana,,Četrtna skupnost Center,Ljubljana,1000,Ljubljana,Osrednjeslovenska
1000 LJUBLJANA,KOTNIKOVA ULICA 30,46.05676,14.51406,Kotnikova ulica,,30,,Ljubljana,,Četrtna skupnost Center,Ljubljana,1000,Ljubljana,Osrednjeslovenska
1000 LJUBLJANA,KRŽIČEVA ULICA 10,46.06465,14.51105,Kržičeva ulica,,10,,Ljubljana,,Četrtna skupnost Bežigrad,Ljubljana,1000,Ljubljana,Osrednjeslovenska
1000 LJUBLJANA,KUNAVERJEVA ULICA 15,46.07940,14.47495,Kunaverjeva ulica,,15,,Ljubljana,,Četrtna skupnost Dravlje,Ljubljana,1000,Ljubljana,Osrednjeslovenska
1000 LJUBLJANA,LAMUTOVA ULICA 15,46.07676,14.45439,Lamutova ulica,,15,,Ljubljana,,Četrtna skupnost Dravlje,Ljubljana,1000,Ljubljana,Osrednjeslovenska
1000 LJUBLJANA,LEPI POT 14,46.04460,14.49488,Lepi pot,,14,,Ljubljana,,Četrtna skupnost Vič,Ljubljana,1000,Ljubljana,Osrednjeslovenska
1000 LJUBLJANA,LEVČEVA ULICA 11,46.04925,14.48778,Levčeva ulica,,11,,Ljubljana,,Četrtna skupnost Rožnik,Ljubljana,1000,Ljubljana,Osrednjeslovenska
1000 LJUBLJANA,LINHARTOVA CESTA 15,46.06480,14.51444,Linhartova cesta,,15,,Ljubljana,,Četrtna skupnost Bežigrad,Ljubljana,1000,Ljubljana,Osrednjeslovenska
1000 LJUBLJANA,LINHARTOVA CESTA 5,46.06405,14.50981,Linhartova cesta,,5,,Ljubljana,,Četrtna skupnost Bežigrad,Ljubljana,1000,Ljubljana,Osrednjeslovenska
1000 LJUBLJANA,LINHARTOVA CESTA 51,46.06670,14.52411,Linhartova cesta,,51,,Ljubljana,,Četrtna skupnost Bežigrad,Ljubljana,1000,Ljubljana,Osrednjeslovenska
1000 LJUBLJANA,LITIJSKA CESTA 161,46.04539,14.56288,Litijska cesta,,161,,Ljubljana,,Četrtna skupnost Golovec,Ljubljana,1000,Ljubljana,Osrednjeslovenska
1000 LJUBLJANA,LITIJSKA CESTA 38,46.04733,14.54543,Litijska cesta,,38,,Ljubljana,,Četrtna skupnost Golovec,Ljubljana,1000,Ljubljana,Osrednjeslovenska
1000 LJUBLJANA,LITIJSKA CESTA 43,46.04812,14.54356,Litijska cesta,,43,,Ljubljana,,Četrtna skupnost Golovec,Ljubljana,1000,Ljubljana,Osrednjeslovenska
1000 LJUBLJANA,LITIJSKA CESTA 47,46.04806,14.54442,Litijska cesta,,47,,Ljubljana,,Četrtna skupnost Golovec,Ljubljana,1000,Ljubljana,Osrednjeslovenska
1000 LJUBLJANA,MAJORJA LAVRIČA 12,46.07845,14.47673,Majorja Lavriča ulica,,12,,Ljubljana,,Četrtna skupnost Dravlje,Ljubljana,1000,Ljubljana,Osrednjeslovenska
1000 LJUBLJANA,MALEŠEVA ULICA 36,46.06634,14.47228,Maleševa ulica,,36,,Ljubljana,,Četrtna skupnost Šiška,Ljubljana,1000,Ljubljana,Osrednjeslovenska
1000 LJUBLJANA,MAROLTOVA ULICA 11,46.07983,14.51755,Maroltova ulica,,11,,Ljubljana,,Četrtna skupnost Bežigrad,Ljubljana,1000,Ljubljana,Osrednjeslovenska
1000 LJUBLJANA,MARTINČEVA ULICA 30,46.07876,14.46871,Martinčeva ulica,,30,,Ljubljana,,Četrtna skupnost Dravlje,Ljubljana,1000,Ljubljana,Osrednjeslovenska
1000 LJUBLJANA,MATJANOVA POT 5,46.06695,14.48026,Matjanova pot,,5,,Ljubljana,,Četrtna skupnost Šiška,Ljubljana,1000,Ljubljana,Osrednjeslovenska
1000 LJUBLJANA,METELKOVA ULICA 15,46.05705,14.51547,Metelkova ulica,,15,,Ljubljana,,Četrtna skupnost Center,Ljubljana,1000,Ljubljana,Osrednjeslovenska
1000 LJUBLJANA,METELKOVA ULICA 9,46.05658,14.51516,Metelkova ulica,,9,,Ljubljana,,Četrtna skupnost Center,Ljubljana,1000,Ljubljana,Osrednjeslovenska
1000 LJUBLJANA,MIRJE 19,46.04538,14.49873,Mirje,,19,,Ljubljana,,Četrtna skupnost Vič,Ljubljana,1000,Ljubljana,Osrednjeslovenska
1000 LJUBLJANA,MIRJE 2,46.04487,14.50172,Mirje,,2,,Ljubljana,,Četrtna skupnost Trnovo,Ljubljana,1000,Ljubljana,Osrednjeslovenska
1000 LJUBLJANA,NOVE FUŽINE 40,46.05346,14.56112,Nove Fužine,,40,,Ljubljana,,Četrtna skupnost Moste,Ljubljana,1000,Ljubljana,Osrednjeslovenska
1000 LJUBLJANA,OB SOTOČJU 9,46.05335,14.54171,Ob sotočju,,9,,Ljubljana,,Četrtna skupnost Golovec,Ljubljana,1000,Ljubljana,Osrednjeslovenska
1000 LJUBLJANA,OB ZELENI JAMI 3,46.05956,14.52509,Ob zeleni jami,,3,,Ljubljana,,Četrtna skupnost Jarše,Ljubljana,1000,Ljubljana,Osrednjeslovenska
1000 LJUBLJANA,OPEKARSKA CESTA 11,46.03951,14.50753,Opekarska cesta,,11,,Ljubljana,,Četrtna skupnost Trnovo,Ljubljana,1000,Ljubljana,Osrednjeslovenska
1000 LJUBLJANA,OPEKARSKA CESTA 30,46.03750,14.50466,Opekarska cesta,,30,,Ljubljana,,Četrtna skupnost Trnovo,Ljubljana,1000,Ljubljana,Osrednjeslovenska
1000 LJUBLJANA,PARMOVA ULICA 51,46.06408,14.50270,Parmova ulica,,51,,Ljubljana,,Četrtna skupnost Bežigrad,Ljubljana,1000,Ljubljana,Osrednjeslovenska
1000 LJUBLJANA,PARMOVA ULICA 51 B,46.06450,14.50257,Parmova ulica,,51,B,Ljubljana,,Četrtna skupnost Bežigrad,Ljubljana,1000,Ljubljana,Osrednjeslovenska
1000 LJUBLJANA,PARMOVA ULICA 53,46.06506,14.50269,Parmova ulica,,53,,Ljubljana,,Četrtna skupnost Bežigrad,Ljubljana,1000,Ljubljana,Osrednjeslovenska
1000 LJUBLJANA,PERIČEVA ULICA 25,46.06616,14.51125,Peričeva ulica,,25,,Ljubljana,,Četrtna skupnost Bežigrad,Ljubljana,1000,Ljubljana,Osrednjeslovenska
1000 LJUBLJANA,PERIČEVA ULICA 29,46.06668,14.51192,Peričeva ulica,,29,,Ljubljana,,Četrtna skupnost Bežigrad,Ljubljana,1000,Ljubljana,Osrednjeslovenska
1000 LJUBLJANA,PERIČEVA ULICA 31,46.06686,14.51147,Peričeva ulica,,31,,Ljubljana,,Četrtna skupnost Bežigrad,Ljubljana,1000,Ljubljana,Osrednjeslovenska
1000 LJUBLJANA,PERIČEVA ULICA 7,46.06393,14.51085,Peričeva ulica,,7,,Ljubljana,,Četrtna skupnost Bežigrad,Ljubljana,1000,Ljubljana,Osrednjeslovenska
1000 LJUBLJANA,PETKOVŠKOVO NABREŽJE 57,46.05204,14.51312,Petkovškovo nabrežje,,57,,Ljubljana,,Četrtna skupnost Center,Ljubljana,1000,Ljubljana,Osrednjeslovenska
1000 LJUBLJANA,PLEŠIČEVA ULICA 15,46.08009,14.46711,Plešičeva ulica,,15,,Ljubljana,,Četrtna skupnost Dravlje,Ljubljana,1000,Ljubljana,Osrednjeslovenska
1000 LJUBLJANA,POD JELŠAMI 20,46.03383,14.49319,Pod jelšami,,20,,Ljubljana,,Četrtna skupnost Trnovo,Ljubljana,1000,Ljubljana,Osrednjeslovenska
1000 LJUBLJANA,PODGORNIKOVA ULICA 1,46.07375,14.47954,Podgornikova ulica,,1,,Ljubljana,,Četrtna skupnost Šiška,Ljubljana,1000,Ljubljana,Osrednjeslovenska
1000 LJUBLJANA,POT NA FUŽINE 3,46.05563,14.55129,Pot na Fužine,,3,,Ljubljana,,Četrtna skupnost Moste,Ljubljana,1000,Ljubljana,Osrednjeslovenska
1000 LJUBLJANA,POT NA HREŠE 10 D,46.06223,14.60872,Pot na Hreše,,10,D,Ljubljana,,Četrtna skupnost Polje,Ljubljana,1000,Ljubljana,Osrednjeslovenska
1000 LJUBLJANA,POVŠETOVA ULICA 57,46.05333,14.53286,Povšetova ulica,,57,,Ljubljana,,Četrtna skupnost Moste,Ljubljana,1000,Ljubljana,Osrednjeslovenska
1000 LJUBLJANA,PREGLOV TRG 1,46.05507,14.55766,Preglov trg,,1,,Ljubljana,,Četrtna skupnost Moste,Ljubljana,1000,Ljubljana,Osrednjeslovenska
1000 LJUBLJANA,PRIJATELJEVA ULICA 2,46.04409,14.50840,Prijateljeva ulica,,2,,Ljubljana,,Četrtna skupnost Center,Ljubljana,1000,Ljubljana,Osrednjeslovenska
1000 LJUBLJANA,PRVOMAJSKA ULICA 5,46.05588,14.53132,Prvomajska ulica,,5,,Ljubljana,,Četrtna skupnost Moste,Ljubljana,1000,Ljubljana,Osrednjeslovenska
1000 LJUBLJANA,PUTRIHOVA ULICA 1,46.11509,14.46525,Putrihova ulica,,1,,Ljubljana,,Četrtna skupnost Šentvid,Ljubljana,1000,Ljubljana,Osrednjeslovenska
1000 LJUBLJANA,RAKUŠEVA ULICA 6,46.07678,14.48435,Rakuševa ulica,,6,,Ljubljana,,Četrtna skupnost Šiška,Ljubljana,1000,Ljubljana,Osrednjeslovenska
1000 LJUBLJANA,REDELONGHIJEVA ULICA 12,46.04099,14.48579,Redelonghijeva ulica,,12,,Ljubljana,,Četrtna skupnost Vič,Ljubljana,1000,Ljubljana,Osrednjeslovenska
1000 LJUBLJANA,ROŽANSKA ULICA 2,46.07340,14.50885,Rožanska ulica,,2,,Ljubljana,,Četrtna skupnost Bežigrad,Ljubljana,1000,Ljubljana,Osrednjeslovenska
1000 LJUBLJANA,"ROŽNA DOLINA, CESTA IV 45",46.04624,14.48124,"Rožna dolina, cesta IV",,45,,Ljubljana,,Četrtna skupnost Rožnik,Ljubljana,1000,Ljubljana,Osrednjeslovenska
1000 LJUBLJANA,"ROŽNA DOLINA, CESTA VII 21 A",46.04992,14.48188,"Rožna dolina, cesta VII",,21,A,Ljubljana,,Četrtna skupnost Rožnik,Ljubljana,1000,Ljubljana,Osrednjeslovenska
1000 LJUBLJANA,SAVLJE 74 C,46.09602,14.50020,Savlje,,74,C,Ljubljana,,Četrtna skupnost Posavje,Ljubljana,1000,Ljubljana,Osrednjeslovenska
1000 LJUBLJANA,SAVSKA CESTA 10,46.06433,14.52589,Savska cesta,,10,,Ljubljana,,Četrtna skupnost Jarše,Ljubljana,1000,Ljubljana,Osrednjeslovenska
1000 LJUBLJANA,SAVSKA CESTA 2,46.06365,14.52564,Savska cesta,,2,,Ljubljana,,Četrtna skupnost Jarše,Ljubljana,1000,Ljubljana,Osrednjeslovenska
1000 LJUBLJANA,SAVSKA CESTA 3,46.06440,14.52522,Savska cesta,,3,,Ljubljana,,Četrtna skupnost Bežigrad,Ljubljana,1000,Ljubljana,Osrednjeslovenska
1000 LJUBLJANA,SAVSKA CESTA 9,46.06398,14.52499,Savska cesta,,9,,Ljubljana,,Četrtna skupnost Bežigrad,Ljubljana,1000,Ljubljana,Osrednjeslovenska
1000 LJUBLJANA,SLOMŠKOVA ULICA 17,46.05559,14.51270,Slomškova ulica,,17,,Ljubljana,,Četrtna skupnost Center,Ljubljana,1000,Ljubljana,Osrednjeslovenska
1000 LJUBLJANA,SLOMŠKOVA ULICA 35,46.05529,14.51468,Slomškova ulica,,35,,Ljubljana,,Četrtna skupnost Center,Ljubljana,1000,Ljubljana,Osrednjeslovenska
1000 LJUBLJANA,SLOVENSKA CESTA 54,46.05614,14.50576,Slovenska cesta,,54,,Ljubljana,,Četrtna skupnost Center,Ljubljana,1000,Ljubljana,Osrednjeslovenska
1000 LJUBLJANA,SREDIŠKA ULICA 21,46.05979,14.53046,Središka ulica,,21,,Ljubljana,,Četrtna skupnost Jarše,Ljubljana,1000,Ljubljana,Osrednjeslovenska
1000 LJUBLJANA,STOŽICE 7,46.08458,14.52202,Stožice,,7,,Ljubljana,,Četrtna skupnost Posavje,Ljubljana,1000,Ljubljana,Osrednjeslovenska
1000 LJUBLJANA,TABOR 10,46.05420,14.51467,Tabor,,10,,Ljubljana,,Četrtna skupnost Center,Ljubljana,1000,Ljubljana,Osrednjeslovenska
1000 LJUBLJANA,TABOR 14,46.05442,14.51666,Tabor,,14,,Ljubljana,,Četrtna skupnost Center,Ljubljana,1000,Ljubljana,Osrednjeslovenska
1000 LJUBLJANA,TACENSKA CESTA 120,46.11646,14.46205,Tacenska cesta,,120,,Ljubljana,,Četrtna skupnost Šentvid,Ljubljana,1000,Ljubljana,Osrednjeslovenska
1000 LJUBLJANA,TBILISIJSKA ULICA 57 B,46.03694,14.47959,Tbilisijska ulica,,57,B,Ljubljana,,Četrtna skupnost Vič,Ljubljana,1000,Ljubljana,Osrednjeslovenska
1000 LJUBLJANA,TBILISIJSKA ULICA 59,46.03762,14.47887,Tbilisijska ulica,,59,,Ljubljana,,Četrtna skupnost Vič,Ljubljana,1000,Ljubljana,Osrednjeslovenska
1000 LJUBLJANA,TBILISIJSKA ULICA 81,46.03589,14.47775,Tbilisijska ulica,,81,,Ljubljana,,Četrtna skupnost Vič,Ljubljana,1000,Ljubljana,Osrednjeslovenska
1000 LJUBLJANA,TBILISIJSKA ULICA 89,46.03612,14.47919,Tbilisijska ulica,,89,,Ljubljana,,Četrtna skupnost Vič,Ljubljana,1000,Ljubljana,Osrednjeslovenska
1000 LJUBLJANA,TEHNOLOŠKI PARK 19,46.04939,14.46075,Tehnološki park,,19,,Ljubljana,,Četrtna skupnost Rožnik,Ljubljana,1000,Ljubljana,Osrednjeslovenska
1000 LJUBLJANA,TEHNOLOŠKI PARK 20,46.05045,14.46030,Tehnološki park,,20,,Ljubljana,,Četrtna skupnost Rožnik,Ljubljana,1000,Ljubljana,Osrednjeslovenska
1000 LJUBLJANA,TEHNOLOŠKI PARK 21,46.04931,14.46015,Tehnološki park,,21,,Ljubljana,,Četrtna skupnost Rožnik,Ljubljana,1000,Ljubljana,Osrednjeslovenska
1000 LJUBLJANA,TIVOLSKA CESTA 48,46.05758,14.50466,Tivolska cesta,,48,,Ljubljana,,Četrtna skupnost Center,Ljubljana,1000,Ljubljana,Osrednjeslovenska
1000 LJUBLJANA,TOPNIŠKA ULICA 4,46.06740,14.51179,Topniška ulica,,4,,Ljubljana,,Četrtna skupnost Bežigrad,Ljubljana,1000,Ljubljana,Osrednjeslovenska
1000 LJUBLJANA,TRIGLAVSKA ULICA 6,46.07328,14.50934,Triglavska ulica,,6,,Ljubljana,,Četrtna skupnost Bežigrad,Ljubljana,1000,Ljubljana,Osrednjeslovenska
1000 LJUBLJANA,TRUBARJEVA CESTA 2,46.05160,14.50665,Trubarjeva cesta,,2,,Ljubljana,,Četrtna skupnost Center,Ljubljana,1000,Ljubljana,Osrednjeslovenska
1000 LJUBLJANA,TRŽAŠKA CESTA 118,46.03963,14.47124,Tržaška cesta,,118,,Ljubljana,,Četrtna skupnost Vič,Ljubljana,1000,Ljubljana,Osrednjeslovenska
1000 LJUBLJANA,TRŽAŠKA CESTA 133,46.03812,14.47024,Tržaška cesta,,133,,Ljubljana,,Četrtna skupnost Vič,Ljubljana,1000,Ljubljana,Osrednjeslovenska
1000 LJUBLJANA,TRŽAŠKA CESTA 15,46.04632,14.49255,Tržaška cesta,,15,,Ljubljana,,Četrtna skupnost Vič,Ljubljana,1000,Ljubljana,Osrednjeslovenska
1000 LJUBLJANA,TRŽNA ULICA 3,46.06421,14.49368,Tržna ulica,,3,,Ljubljana,,Četrtna skupnost Šiška,Ljubljana,1000,Ljubljana,Osrednjeslovenska
1000 LJUBLJANA,UKMARJEVA ULICA 2,46.02058,14.53935,Ukmarjeva ulica,,2,,Ljubljana,,Četrtna skupnost Rudnik,Ljubljana,1000,Ljubljana,Osrednjeslovenska
1000 LJUBLJANA,UKMARJEVA ULICA 4,46.02086,14.53912,Ukmarjeva ulica,,4,,Ljubljana,,Četrtna skupnost Rudnik,Ljubljana,1000,Ljubljana,Osrednjeslovenska
1000 LJUBLJANA,ULICA ALME SODNIK 6,46.07385,14.49536,Ulica Alme Sodnik,,6,,Ljubljana,,Četrtna skupnost Šiška,Ljubljana,1000,Ljubljana,Osrednjeslovenska
1000 LJUBLJANA,ULICA BRATOV BABNIK 10,46.07645,14.46600,Ulica bratov Babnik,,10,,Ljubljana,,Četrtna skupnost Dravlje,Ljubljana,1000,Ljubljana,Osrednjeslovenska
1000 LJUBLJANA,ULICA BRATOV UČAKAR 58,46.07236,14.47342,Ulica bratov Učakar,,58,,Ljubljana,,Četrtna skupnost Šiška,Ljubljana,1000,Ljubljana,Osrednjeslovenska
1000 LJUBLJANA,ULICA BRATOV UČAKAR 64,46.07216,14.47257,Ulica bratov Učakar,,64,,Ljubljana,,Četrtna skupnost Šiška,Ljubljana,1000,Ljubljana,Osrednjeslovenska
1000 LJUBLJANA,ULICA LOJZETA SPACALA 10,46.06747,14.47210,Ulica Lojzeta Spacala,,10,,Ljubljana,,Četrtna skupnost Šiška,Ljubljana,1000,Ljubljana,Osrednjeslovenska
1000 LJUBLJANA,URANIČEVA ULICA 4 A,46.07105,14.47191,Uraničeva ulica,,4,A,Ljubljana,,Četrtna skupnost Šiška,Ljubljana,1000,Ljubljana,Osrednjeslovenska
1000 LJUBLJANA,V KLADEH 9,46.10876,14.45930,V Kladeh,,9,,Ljubljana,,Četrtna skupnost Šentvid,Ljubljana,1000,Ljubljana,Osrednjeslovenska
1000 LJUBLJANA,VILHARJEV PODHOD 1,46.06032,14.51507,Vilharjev podhod,,1,,Ljubljana,,Četrtna skupnost Bežigrad,Ljubljana,1000,Ljubljana,Osrednjeslovenska
1000 LJUBLJANA,VILHARJEV PODHOD 18,46.06015,14.51605,Vilharjev podhod,,18,,Ljubljana,,Četrtna skupnost Bežigrad,Ljubljana,1000,Ljubljana,Osrednjeslovenska
1000 LJUBLJANA,VILHARJEV PODHOD 7,46.06035,14.51578,Vilharjev podhod,,7,,Ljubljana,,Četrtna skupnost Bežigrad,Ljubljana,1000,Ljubljana,Osrednjeslovenska
1000 LJUBLJANA,VILHARJEVA CESTA 25,46.06020,14.51486,Vilharjeva cesta,,25,,Ljubljana,,Četrtna skupnost Bežigrad,Ljubljana,1000,Ljubljana,Osrednjeslovenska
1000 LJUBLJANA,VILHARJEVA CESTA 27,46.06020,14.51545,Vilharjeva cesta,,27,,Ljubljana,,Četrtna skupnost Bežigrad,Ljubljana,1000,Ljubljana,Osrednjeslovenska
1000 LJUBLJANA,VODNIKOVA CESTA 187,46.07405,14.47528,Vodnikova cesta,,187,,Ljubljana,,Četrtna skupnost Šiška,Ljubljana,1000,Ljubljana,Osrednjeslovenska
1000 LJUBLJANA,VODNIKOVA CESTA 56,46.06700,14.48819,Vodnikova cesta,,56,,Ljubljana,,Četrtna skupnost Šiška,Ljubljana,1000,Ljubljana,Osrednjeslovenska
1000 LJUBLJANA,VODOVODNA CESTA 100,46.07860,14.50306,Vodovodna cesta,,100,,Ljubljana,,Četrtna skupnost Šiška,Ljubljana,1000,Ljubljana,Osrednjeslovenska
1000 LJUBLJANA,VODOVODNA CESTA 109,46.07871,14.50194,Vodovodna cesta,,109,,Ljubljana,,Četrtna skupnost Šiška,Ljubljana,1000,Ljubljana,Osrednjeslovenska
1000 LJUBLJANA,VODOVODNA CESTA 99 A,46.07764,14.50248,Vodovodna cesta,,99,A,Ljubljana,,Četrtna skupnost Šiška,Ljubljana,1000,Ljubljana,Osrednjeslovenska
1000 LJUBLJANA,VOJKOVA CESTA 74,46.07115,14.52000,Vojkova cesta,,74,,Ljubljana,,Četrtna skupnost Bežigrad,Ljubljana,1000,Ljubljana,Osrednjeslovenska
1000 LJUBLJANA,"VRHOVCI, CESTA XVIII 3",46.04606,14.45584,"Vrhovci, cesta XVIII",,3,,Ljubljana,,Četrtna skupnost Rožnik,Ljubljana,1000,Ljubljana,Osrednjeslovenska
1000 LJUBLJANA,VURNIKOVA ULICA 9,46.06262,14.51543,Vurnikova ulica,,9,,Ljubljana,,Četrtna skupnost Bežigrad,Ljubljana,1000,Ljubljana,Osrednjeslovenska
1000 LJUBLJANA,ZALOŠKA CESTA 149,46.05654,14.55551,Zaloška cesta,,149,,Ljubljana,,Četrtna skupnost Moste,Ljubljana,1000,Ljubljana,Osrednjeslovenska
1000 LJUBLJANA,ZALOŠKA CESTA 159,46.05661,14.55866,Zaloška cesta,,159,,Ljubljana,,Četrtna skupnost Moste,Ljubljana,1000,Ljubljana,Osrednjeslovenska
1000 LJUBLJANA,ZALOŠKA CESTA 167,46.05636,14.56089,Zaloška cesta,,167,,Ljubljana,,Četrtna skupnost Moste,Ljubljana,1000,Ljubljana,Osrednjeslovenska
1000 LJUBLJANA,ZALOŠKA CESTA 2,46.05221,14.52078,Zaloška cesta,,2,,Ljubljana,,Četrtna skupnost Center,Ljubljana,1000,Ljubljana,Osrednjeslovenska
1000 LJUBLJANA,ZALOŠKA CESTA 269,46.06104,14.61452,Zaloška cesta,,269,,Ljubljana,,Četrtna skupnost Polje,Ljubljana,1000,Ljubljana,Osrednjeslovenska
1000 LJUBLJANA,ZALOŠKA CESTA 69,46.05637,14.53844,Zaloška cesta,,69,,Ljubljana,,Četrtna skupnost Moste,Ljubljana,1000,Ljubljana,Osrednjeslovenska
1000 LJUBLJANA,ZARNIKOVA ULICA 11,46.04835,14.51569,Zarnikova ulica,,11,,Ljubljana,,Četrtna skupnost Center,Ljubljana,1000,Ljubljana,Osrednjeslovenska
1000 LJUBLJANA,ZDRAVSTVENA POT 1,46.04729,14.51594,Zdravstvena pot,,1,,Ljubljana,,Četrtna skupnost Center,Ljubljana,1000,Ljubljana,Osrednjeslovenska
1000 LJUBLJANA,ZIHERLOVA ULICA 38,46.04095,14.50414,Ziherlova ulica,,38,,Ljubljana,,Četrtna skupnost Trnovo,Ljubljana,1000,Ljubljana,Osrednjeslovenska
1000 LJUBLJANA,ČUČKOVA ULICA 17,46.03501,14.45303,Čučkova ulica,,17,,Ljubljana,,Četrtna skupnost Vič,Ljubljana,1000,Ljubljana,Osrednjeslovenska
1000 LJUBLJANA,ŠARHOVA ULICA 20,46.07926,14.51017,Šarhova ulica,,20,,Ljubljana,,Četrtna skupnost Bežigrad,Ljubljana,1000,Ljubljana,Osrednjeslovenska
1000 LJUBLJANA,ŠESTOVA ULICA 10,46.04631,14.48719,Šestova ulica,,10,,Ljubljana,,Četrtna skupnost Vič,Ljubljana,1000,Ljubljana,Osrednjeslovenska
1000 LJUBLJANA,ŠIŠENSKA CESTA 44,46.07131,14.48026,Šišenska cesta,,44,,Ljubljana,,Četrtna skupnost Šiška,Ljubljana,1000,Ljubljana,Osrednjeslovenska
1000 LJUBLJANA,ŠLAJMERJEVA ULICA 6,46.05426,14.52502,Šlajmerjeva ulica,,6,,Ljubljana,,