cityZZZS,addressZZZS,lat,lon,street,streetAlt,housenumber,housenumberAppendix,city,cityAlt,municipalityPart,municipality,zipCode,zipName,statisticalRegion
1000 LJUBLJANA,ALJAŽEVA ULICA 30,46.06839,14.49548,Aljaževa ulica,,30,,Ljubljana,,Četrtna skupnost Šiška,Ljubljana,1000,Ljubljana,Osrednjeslovenska
1000 LJUBLJANA,AMERIŠKA ULICA 13,46.06609,14.54281,Ameriška ulica,,13,,Ljubljana,,Četrtna skupnost Jarše,Ljubljana,1000,Ljubljana,Osrednjeslovenska
1000 LJUBLJANA,AŠKERČEVA CESTA 4,46.04687,14.49913,Aškerčeva cesta,,4,,Ljubljana,,Četrtna skupnost Center,Ljubljana,1000,Ljubljana,Osrednjeslovenska
1000 LJUBLJANA,BEETHOVNOVA ULICA 6,46.05163,14.50200,Beethovnova ulica,,6,,Ljubljana,,Četrtna skupnost Center,Ljubljana,1000,Ljubljana,Osrednjeslovenska
1000 LJUBLJANA,BOHORIČEVA ULICA 5,46.05543,14.52005,Bohoričeva ulica,,5,,Ljubljana,,Četrtna skupnost Center,Ljubljana,1000,Ljubljana,Osrednjeslovenska
1000 LJUBLJANA,BRAJNIKOVA ULICA 20,46.07204,14.46614,Brajnikova ulica,,20,,Ljubljana,,Četrtna skupnost Šiška,Ljubljana,1000,Ljubljana,Osrednjeslovenska
1000 LJUBLJANA,BRATOVŠEVA PLOŠČAD 30,46.08968,14.50886,Bratovševa ploščad,,30,,Ljubljana,,Četrtna skupnost Posavje,Ljubljana,1000,Ljubljana,Osrednjeslovenska
1000 LJUBLJANA,CELOVŠKA CESTA 111 C,46.06906,14.48980,Celovška cesta,,111,C,Ljubljana,,Četrtna skupnost Šiška,Ljubljana,1000,Ljubljana,Osrednjeslovenska
1000 LJUBLJANA,CELOVŠKA CESTA 142,46.07296,14.48725,Celovška cesta,,142,,Ljubljana,,Četrtna skupnost Šiška,Ljubljana,1000,Ljubljana,Osrednjeslovenska
1000 LJUBLJANA,CELOVŠKA CESTA 280,46.08748,14.47448,Celovška cesta,,280,,Ljubljana,,Četrtna skupnost Dravlje,Ljubljana,1000,Ljubljana,Osrednjeslovenska
1000 LJUBLJANA,CELOVŠKA CESTA 4,46.05730,14.50122,Celovška cesta,,4,,Ljubljana,,Četrtna skupnost Center,Ljubljana,1000,Ljubljana,Osrednjeslovenska
1000 LJUBLJANA,CELOVŠKA CESTA 42,46.06210,14.49618,Celovška cesta,,42,,Ljubljana,,Četrtna skupnost Šiška,Ljubljana,1000,Ljubljana,Osrednjeslovenska
1000 LJUBLJANA,CESTA LJUBLJANSKE BRIGADE 23,46.08665,14.47871,Cesta Ljubljanske brigade,,23,,Ljubljana,,Četrtna skupnost Dravlje,Ljubljana,1000,Ljubljana,Osrednjeslovenska
1000 LJUBLJANA,CESTA LJUBLJANSKE BRIGADE 33,46.08830,14.47718,Cesta Ljubljanske brigade,,33,,Ljubljana,,Četrtna skupnost Dravlje,Ljubljana,1000,Ljubljana,Osrednjeslovenska
1000 LJUBLJANA,CESTA NA BOKALCE 51,46.05096,14.44808,Cesta na Bokalce,,51,,Ljubljana,,Četrtna skupnost Rožnik,Ljubljana,1000,Ljubljana,Osrednjeslovenska
1000 LJUBLJANA,CESTA NA BRDO 43,46.04527,14.47120,Cesta na Brdo,,43,,Ljubljana,,Četrtna skupnost Rožnik,Ljubljana,1000,Ljubljana,Osrednjeslovenska
1000 LJUBLJANA,CESTA NA BRDO 63,46.04564,14.46976,Cesta na Brdo,,63,,Ljubljana,,Četrtna skupnost Rožnik,Ljubljana,1000,Ljubljana,Osrednjeslovenska
1000 LJUBLJANA,CESTA NA ROŽNIK 17,46.05380,14.48571,Cesta na Rožnik,,17,,Ljubljana,,Četrtna skupnost Rožnik,Ljubljana,1000,Ljubljana,Osrednjeslovenska
1000 LJUBLJANA,CESTA V MESTNI LOG 55,46.03620,14.48957,Cesta v Mestni log,,55,,Ljubljana,,Četrtna skupnost Trnovo,Ljubljana,1000,Ljubljana,Osrednjeslovenska
1000 LJUBLJANA,CLEVELANDSKA ULICA 23,46.07364,14.54313,Clevelandska ulica,,23,,Ljubljana,,Četrtna skupnost Jarše,Ljubljana,1000,Ljubljana,Osrednjeslovenska
1000 LJUBLJANA,DALMATINOVA ULICA 10,46.05355,14.50782,Dalmatinova ulica,,10,,Ljubljana,,Četrtna skupnost Center,Ljubljana,1000,Ljubljana,Osrednjeslovenska
1000 LJUBLJANA,DALMATINOVA ULICA 7,46.05425,14.50563,Dalmatinova ulica,,7,,Ljubljana,,Četrtna skupnost Center,Ljubljana,1000,Ljubljana,Osrednjeslovenska
1000 LJUBLJANA,DERČEVA ULICA 35,46.07120,14.48296,Derčeva ulica,,35,,Ljubljana,,Četrtna skupnost Šiška,Ljubljana,1000,Ljubljana,Osrednjeslovenska
1000 LJUBLJANA,DERČEVA ULICA 5,46.06846,14.48800,Derčeva ulica,,5,,Ljubljana,,Četrtna skupnost Šiška,Ljubljana,1000,Ljubljana,Osrednjeslovenska
1000 LJUBLJANA,DOLENJSKA CESTA 46,46.03749,14.51913,Dolenjska cesta,,46,,Ljubljana,,Četrtna skupnost Rudnik,Ljubljana,1000,Ljubljana,Osrednjeslovenska
1000 LJUBLJANA,DUNAJSKA CESTA 109,46.07429,14.51020,Dunajska cesta,,109,,Ljubljana,,Četrtna skupnost Bežigrad,Ljubljana,1000,Ljubljana,Osrednjeslovenska
1000 LJUBLJANA,DUNAJSKA CESTA 129,46.07794,14.51189,Dunajska cesta,,129,,Ljubljana,,Četrtna skupnost Bežigrad,Ljubljana,1000,Ljubljana,Osrednjeslovenska
1000 LJUBLJANA,DUNAJSKA CESTA 152,46.08125,14.51349,Dunajska cesta,,152,,Ljubljana,,Četrtna skupnost Bežigrad,Ljubljana,1000,Ljubljana,Osrednjeslovenska
1000 LJUBLJANA,DUNAJSKA CESTA 186,46.08667,14.51460,Dunajska cesta,,186,,Ljubljana,,Četrtna skupnost Posavje,Ljubljana,1000,Ljubljana,Osrednjeslovenska
1000 LJUBLJANA,DUNAJSKA CESTA 198,46.08740,14.51458,Dunajska cesta,,198,,Ljubljana,,Četrtna skupnost Posavje,Ljubljana,1000,Ljubljana,Osrednjeslovenska
1000 LJUBLJANA,DUNAJSKA CESTA 22,46.06212,14.50930,Dunajska cesta,,22,,Ljubljana,,Četrtna skupnost Bežigrad,Ljubljana,1000,Ljubljana,Osrednjeslovenska
1000 LJUBLJANA,DUNAJSKA CESTA 31,46.06221,14.50753,Dunajska cesta,,31,,Ljubljana,,Četrtna skupnost Bežigrad,Ljubljana,1000,Ljubljana,Osrednjeslovenska
1000 LJUBLJANA,DUNAJSKA CESTA 49,46.06449,14.50840,Dunajska cesta,,49,,Ljubljana,,Četrtna skupnost Bežigrad,Ljubljana,1000,Ljubljana,Osrednjeslovenska
1000 LJUBLJANA,DUNAJSKA CESTA 5,46.05937,14.50613,Dunajska cesta,,5,,Ljubljana,,Četrtna skupnost Bežigrad,Ljubljana,1000,Ljubljana,Osrednjeslovenska
1000 LJUBLJANA,DUNAJSKA CESTA 56,46.06546,14.50982,Dunajska cesta,,56,,Ljubljana,,Četrtna skupnost Bežigrad,Ljubljana,1000,Ljubljana,Osrednjeslovenska
1000 LJUBLJANA,DUNAJSKA CESTA 59,46.06581,14.50894,Dunajska cesta,,59,,Ljubljana,,Četrtna skupnost Bežigrad,Ljubljana,1000,Ljubljana,Osrednjeslovenska
1000 LJUBLJANA,DUNAJSKA CESTA 63,46.06679,14.50926,Dunajska cesta,,63,,Ljubljana,,Četrtna skupnost Bežigrad,Ljubljana,1000,Ljubljana,Osrednjeslovenska
1000 LJUBLJANA,DUNAJSKA CESTA 88,46.07082,14.51089,Dunajska cesta,,88,,Ljubljana,,Četrtna skupnost Bežigrad,Ljubljana,1000,Ljubljana,Osrednjeslovenska
1000 LJUBLJANA,EIPPROVA ULICA 3,46.04327,14.50498,Eipprova ulica,,3,,Ljubljana,,Četrtna skupnost Trnovo,Ljubljana,1000,Ljubljana,Osrednjeslovenska
1000 LJUBLJANA,FILIPIČEVA ULICA 1,46.04113,14.49404,Filipičeva ulica,,1,,Ljubljana,,Četrtna skupnost Trnovo,Ljubljana,1000,Ljubljana,Osrednjeslovenska
1000 LJUBLJANA,FINŽGARJEVA ULICA 4,46.04417,14.49854,Finžgarjeva ulica,,4,,Ljubljana,,Četrtna skupnost Vič,Ljubljana,1000,Ljubljana,Osrednjeslovenska
1000 LJUBLJANA,FRANKOPANSKA ULICA 18,46.06195,14.49891,Frankopanska ulica,,18,,Ljubljana,,Četrtna skupnost Šiška,Ljubljana,1000,Ljubljana,Osrednjeslovenska
1000 LJUBLJANA,GABRŠČKOVA ULICA 91,46.04743,14.46956,Gabrščkova ulica,,91,,Ljubljana,,Četrtna skupnost Rožnik,Ljubljana,1000,Ljubljana,Osrednjeslovenska
1000 LJUBLJANA,GASPARIJEVA ULICA 12,46.05233,14.52825,Gasparijeva ulica,,12,,Ljubljana,,Četrtna skupnost Center,Ljubljana,1000,Ljubljana,Osrednjeslovenska
1000 LJUBLJANA,GASPARIJEVA ULICA 2,46.05338,14.52867,Gasparijeva ulica,,2,,Ljubljana,,Četrtna skupnost Center,Ljubljana,1000,Ljubljana,Osrednjeslovenska
1000 LJUBLJANA,GLONARJEVA ULICA 4,46.04965,14.52687,Glonarjeva ulica,,4,,Ljubljana,,Četrtna skupnost Center,Ljubljana,1000,Ljubljana,Osrednjeslovenska
1000 LJUBLJANA,GOGALOVA ULICA 15,46.08715,14.51076,Gogalova ulica,,15,,Ljubljana,,Četrtna skupnost Posavje,Ljubljana,1000,Ljubljana,Osrednjeslovenska
1000 LJUBLJANA,GOSPOSVETSKA CESTA 9,46.05509,14.50278,Gosposvetska cesta,,9,,Ljubljana,,Četrtna skupnost Center,Ljubljana,1000,Ljubljana,Osrednjeslovenska
1000 LJUBLJANA,GOTSKA ULICA 18,46.07619,14.47848,Gotska ulica,,18,,Ljubljana,,Četrtna skupnost Šiška,Ljubljana,1000,Ljubljana,Osrednjeslovenska
1000 LJUBLJANA,GREGORČIČEVA ULICA 11,46.04822,14.50041,Gregorčičeva ulica,,11,,Ljubljana,,Četrtna skupnost Center,Ljubljana,1000,Ljubljana,Osrednjeslovenska
1000 LJUBLJANA,GREGORČIČEVA ULICA 9 A,46.04817,14.50067,Gregorčičeva ulica,,9,A,Ljubljana,,Četrtna skupnost Center,Ljubljana,1000,Ljubljana,Osrednjeslovenska
1000 LJUBLJANA,GROHARJEVA CESTA 11,46.04479,14.49729,Groharjeva cesta,,11,,Ljubljana,,Četrtna skupnost Vič,Ljubljana,1000,Ljubljana,Osrednjeslovenska
1000 LJUBLJANA,GRŠKA ULICA 13,46.06621,14.54495,Grška ulica,,13,,Ljubljana,,Četrtna skupnost Jarše,Ljubljana,1000,Ljubljana,Osrednjeslovenska
1000 LJUBLJANA,HACQUETOVA ULICA 6,46.06035,14.51545,Hacquetova ulica,,6,,Ljubljana,,Četrtna skupnost Bežigrad,Ljubljana,1000,Ljubljana,Osrednjeslovenska
1000 LJUBLJANA,HACQUETOVA ULICA 7,46.06068,14.51568,Hacquetova ulica,,7,,Ljubljana,,Četrtna skupnost Bežigrad,Ljubljana,1000,Ljubljana,Osrednjeslovenska
1000 LJUBLJANA,HRENOVA ULICA 19,46.04438,14.50677,Hrenova ulica,,19,,Ljubljana,,Četrtna skupnost Center,Ljubljana,1000,Ljubljana,Osrednjeslovenska
1000 LJUBLJANA,HRUŠEVSKA CESTA 6 A,46.04676,14.54206,Hruševska cesta,,6,A,Ljubljana,,Četrtna skupnost Golovec,Ljubljana,1000,Ljubljana,Osrednjeslovenska
1000 LJUBLJANA,HUBADOVA ULICA 31,46.07760,14.50897,Hubadova ulica,,31,,Ljubljana,,Četrtna skupnost Bežigrad,Ljubljana,1000,Ljubljana,Osrednjeslovenska
1000 LJUBLJANA,KLANČARJEVA ULICA 13,46.02575,14.54048,Klančarjeva ulica,,13,,Ljubljana,,Četrtna skupnost Rudnik,Ljubljana,1000,Ljubljana,Osrednjeslovenska
1000 LJUBLJANA,KOGOVŠKOVA ULICA 1,46.07318,14.46775,Kogovškova ulica,,1,,Ljubljana,,Četrtna skupnost Šiška,Ljubljana,1000,Ljubljana,Osrednjeslovenska
1000 LJUBLJANA,KOLEZIJSKA ULICA 1 A,46.04290,14.50142,Kolezijska ulica,,1,A,Ljubljana,,Četrtna skupnost Trnovo,Ljubljana,1000,Ljubljana,Osrednjeslovenska
1000 LJUBLJANA,KOLEZIJSKA ULICA 25,46.04145,14.49750,Kolezijska ulica,,25,,Ljubljana,,Četrtna skupnost Trnovo,Ljubljana,1000,Ljubljana,Osrednjeslovenska
1000 LJUBLJANA,KOLINSKA ULICA 1,46.05983,14.52249,Kolinska ulica,,1,,Ljubljana,,Četrtna skupnost Jarše,Ljubljana,1000,Ljubljana,Osrednjeslovenska
1000 LJUBLJANA,KOMANOVA ULICA 1,46.08434,14.51257,Komanova ulica,,1,,Ljubljana,,Četrtna skupnost Posavje,Ljubljana,1000,Ljubljana,Osrednjeslovenska
1000 LJUBLJANA,KOMENSKEGA ULICA 11,46.05377,14.51028,Komenskega ulica,,11,,Ljubljana,,Četrtna skupnost Center,Ljubljana,1000,Ljubljana,Osrednjeslovenska
1000 LJUBLJANA,KOMENSKEGA ULICA 19,46.05341,14.51253,Komenskega ulica,,19,,Ljubljana,,Četrtna skupnost Center,Ljubljana,1000,Ljubljana,Osrednjeslovenska
1000 LJUBLJANA,KOMENSKEGA ULICA 32,46.05281,14.51176,Komenskega ulica,,32,,Ljubljana,,Četrtna skupnost Center,Ljubljana,1000,Ljubljana,Osrednjeslovenska
1000 LJUBLJANA,KOPITARJEVA ULICA 4,46.05131,14.51092,Kopitarjeva ulica,,4,,Ljubljana,,Četrtna skupnost Center,Ljubljana,1000,Ljubljana,Osrednjeslovenska
1000 LJUBLJANA,KOPRSKA ULICA 94 A,46.03394,14.48339,Koprska ulica,,94,A,Ljubljana,,Četrtna skupnost Trnovo,Ljubljana,1000,Ljubljana,Osrednjeslovenska
1000 LJUBLJANA,KORYTKOVA ULICA 29,46.05799,14.52368,Korytkova ulica,,29,,Ljubljana,,Četrtna skupnost Center,Ljubljana,1000,Ljubljana,Osrednjeslovenska
1000 LJUBLJANA,KORYTKOVA ULICA 30,46.05777,14.52384,Korytkova ulica,,30,,Ljubljana,,Četrtna skupnost Center,Ljubljana,1000,Ljubljana,Osrednjeslovenska
1000 LJUBLJANA,KOTNIKOVA ULICA 29,46.05681,14.51321,Kotnikova ulica,,29,,Ljubljana,,Četrtna skupnost Center,Ljubljana,1000,Ljubljana,Osrednjeslovenska
1000 LJUBLJANA,KRŽIČEVA ULICA 10,46.06465,14.51105,Kržičeva ulica,,10,,Ljubljana,,Četrtna skupnost Bežigrad,Ljubljana,1000,Ljubljana,Osrednjeslovenska
1000 LJUBLJANA,KUNAVERJEVA ULICA 15,46.07940,14.47495,Kunaverjeva ulica,,15,,Ljubljana,,Četrtna skupnost Dravlje,Ljubljana,1000,Ljubljana,Osrednjeslovenska
1000 LJUBLJANA,LAMUTOVA ULICA 15,46.07676,14.45439,Lamutova ulica,,15,,Ljubljana,,Četrtna skupnost Dravlje,Ljubljana,1000,Ljubljana,Osrednjeslovenska
1000 LJUBLJANA,LEPI POT 14,46.04460,14.49488,Lepi pot,,14,,Ljubljana,,Četrtna skupnost Vič,Ljubljana,1000,Ljubljana,Osrednjeslovenska
1000 LJUBLJANA,LESKOŠKOVA CESTA 4,46.06614,14.55412,Leskoškova cesta,,4,,Ljubljana,,Četrtna skupnost Jarše,Ljubljana,1000,Ljubljana,Osrednjeslovenska
1000 LJUBLJANA,LEVČEVA ULICA 11,46.04925,14.48778,Levčeva ulica,,11,,Ljubljana,,Četrtna skupnost Rožnik,Ljubljana,1000,Ljubljana,Osrednjeslovenska
1000 LJUBLJANA,LINHARTOVA CESTA 15,46.06480,14.51444,Linhartova cesta,,15,,Ljubljana,,Četrtna skupnost Bežigrad,Ljubljana,1000,Ljubljana,Osrednjeslovenska
1000 LJUBLJANA,LINHARTOVA CESTA 5,46.06405,14.50981,Linhartova cesta,,5,,Ljubljana,,Četrtna skupnost Bežigrad,Ljubljana,1000,Ljubljana,Osrednjeslovenska
1000 LJUBLJANA,LINHARTOVA CESTA 51,46.06670,14.52411,Linhartova cesta,,51,,Ljubljana,,Četrtna skupnost Bežigrad,Ljubljana,1000,Ljubljana,Osrednjeslovenska
1000 LJUBLJANA,LITIJSKA CESTA 161,46.04539,14.56288,Litijska cesta,,161,,Ljubljana,,Četrtna skupnost Golovec,Ljubljana,1000,Ljubljana,Osrednjeslovenska
1000 LJUBLJANA,LITIJSKA CESTA 38,46.04733,14.54543,Litijska cesta,,38,,Ljubljana,,Četrtna skupnost Golovec,Ljubljana,1000,Ljubljana,Osrednjeslovenska
1000 LJUBLJANA,LITIJSKA CESTA 43,46.04812,14.54356,Litijska cesta,,43,,Ljubljana,,Četrtna skupnost Golovec,Ljubljana,1000,Ljubljana,Osrednjeslovenska
1000 LJUBLJANA,LITIJSKA CESTA 47,46.04806,14.54442,Litijska cesta,,47,,Ljubljana,,Četrtna skupnost Golovec,Ljubljana,1000,Ljubljana,Osrednjeslovenska
1000 LJUBLJANA,MALEŠEVA ULICA 36,46.06634,14.47228,Maleševa ulica,,36,,Ljubljana,,Četrtna skupnost Šiška,Ljubljana,1000,Ljubljana,Osrednjeslovenska
1000 LJUBLJANA,MAROLTOVA ULICA 11,46.07983,14.51755,Maroltova ulica,,11,,Ljubljana,,Četrtna skupnost Bežigrad,Ljubljana,1000,Ljubljana,Osrednjeslovenska
1000 LJUBLJANA,MARTINČEVA ULICA 30,46.07876,14.46871,Martinčeva ulica,,30,,Ljubljana,,Četrtna skupnost Dravlje,Ljubljana,1000,Ljubljana,Osrednjeslovenska
1000 LJUBLJANA,MATJANOVA POT 5,46.06695,14.48026,Matjanova pot,,5,,Ljubljana,,Četrtna skupnost Šiška,Ljubljana,1000,Ljubljana,Osrednjeslovenska
1000 LJUBLJANA,METELKOVA ULICA 15,46.05705,14.51547,Metelkova ulica,,15,,Ljubljana,,Četrtna skupnost Center,Ljubljana,1000,Ljubljana,Osrednjeslovenska
1000 LJUBLJANA,METELKOVA ULICA 9,46.05658,14.51516,Metelkova ulica,,9,,Ljubljana,,Četrtna skupnost Center,Ljubljana,1000,Ljubljana,Osrednjeslovenska
1000 LJUBLJANA,MIRJE 19,46.04538,14.49873,Mirje,,19,,Ljubljana,,Četrtna skupnost Vič,Ljubljana,1000,Ljubljana,Osrednjeslovenska
1000 LJUBLJANA,MIRJE 2,46.04487,14.50172,Mirje,,2,,Ljubljana,,Četrtna skupnost Trnovo,Ljubljana,1000,Ljubljana,Osrednjeslovenska
1000 LJUBLJANA,NA JAMI 20,46.06663,14.48922,Na jami,,20,,Ljubljana,,Četrtna skupnost Šiška,Ljubljana,1000,Ljubljana,Osrednjeslovenska
1000 LJUBLJANA,NOVE FUŽINE 40,46.05346,14.56112,Nove Fužine,,40,,Ljubljana,,Četrtna skupnost Moste,Ljubljana,1000,Ljubljana,Osrednjeslovenska
1000 LJUBLJANA,OB SOTOČJU 9,46.05335,14.54171,Ob sotočju,,9,,Ljubljana,,Četrtna skupnost Golovec,Ljubljana,1000,Ljubljana,Osrednjeslovenska
1000 LJUBLJANA,OB ZELENI JAMI 3,46.05956,14.52509,Ob zeleni jami,,3,,Ljubljana,,Četrtna skupnost Jarše,Ljubljana,1000,Ljubljana,Osrednjeslovenska
1000 LJUBLJANA,OPEKARSKA CESTA 11,46.03951,14.50753,Opekarska cesta,,11,,Ljubljana,,Četrtna skupnost Trnovo,Ljubljana,1000,Ljubljana,Osrednjeslovenska
1000 LJUBLJANA,OPEKARSKA CESTA 30,46.03750,14.50466,Opekarska cesta,,30,,Ljubljana,,Četrtna skupnost Trnovo,Ljubljana,1000,Ljubljana,Osrednjeslovenska
1000 LJUBLJANA,PARMOVA ULICA 51,46.06408,14.50270,Parmova ulica,,51,,Ljubljana,,Četrtna skupnost Bežigrad,Ljubljana,1000,Ljubljana,Osrednjeslovenska
1000 LJUBLJANA,PARMOVA ULICA 51 B,46.06450,14.50257,Parmova ulica,,51,B,Ljubljana,,Četrtna skupnost Bežigrad,Ljubljana,1000,Ljubljana,Osrednjeslovenska
1000 LJUBLJANA,PERIČEVA ULICA 25,46.06616,14.51125,Peričeva ulica,,25,,Ljubljana,,Četrtna skupnost Bežigrad,Ljubljana,1000,Ljubljana,Osrednjeslovenska
1000 LJUBLJANA,PERIČEVA ULICA 29,46.06668,14.51192,Peričeva ulica,,29,,Ljubljana,,Četrtna skupnost Bežigrad,Ljubljana,1000,Ljubljana,Osrednjeslovenska
1000 LJUBLJANA,PERIČEVA ULICA 31,46.06686,14.51147,Peričeva ulica,,31,,Ljubljana,,Četrtna skupnost Bežigrad,Ljubljana,1000,Ljubljana,Osrednjeslovenska
1000 LJUBLJANA,PERIČEVA ULICA 7,46.06393,14.51085,Peričeva ulica,,7,,Ljubljana,,Četrtna skupnost Bežigrad,Ljubljana,1000,Ljubljana,Osrednjeslovenska
1000 LJUBLJANA,PETKOVŠKOVO NABREŽJE 57,46.05204,14.51312,Petkovškovo nabrežje,,57,,Ljubljana,,Četrtna skupnost Center,Ljubljana,1000,Ljubljana,Osrednjeslovenska
1000 LJUBLJANA,PLEŠIČEVA ULICA 15,46.08009,14.46711,Plešičeva ulica,,15,,Ljubljana,,Četrtna skupnost Dravlje,Ljubljana,1000,Ljubljana,Osrednjeslovenska
1000 LJUBLJANA,POD JELŠAMI 20,46.03383,14.49319,Pod jelšami,,20,,Ljubljana,,Četrtna skupnost Trnovo,Ljubljana,1000,Ljubljana,Osrednjeslovenska
1000 LJUBLJANA,PODGORNIKOVA ULICA 1,46.07375,14.47954,Podgornikova ulica,,1,,Ljubljana,,Četrtna skupnost Šiška,Ljubljana,1000,Ljubljana,Osrednjeslovenska
1000 LJUBLJANA,POT NA FUŽINE 3,46.05563,14.55129,Pot na Fužine,,3,,Ljubljana,,Četrtna skupnost Moste,Ljubljana,1000,Ljubljana,Osrednjeslovenska
1000 LJUBLJANA,POT NA HREŠE 10 D,46.06223,14.60872,Pot na Hreše,,10,D,Ljubljana,,Četrtna skupnost Polje,Ljubljana,1000,Ljubljana,Osrednjeslovenska
1000 LJUBLJANA,POVŠETOVA ULICA 57,46.05333,14.53286,Povšetova ulica,,57,,Ljubljana,,Četrtna skupnost Moste,Ljubljana,1000,Ljubljana,Osrednjeslovenska
1000 LJUBLJANA,PREGLOV TRG 1,46.05507,14.55766,Preglov trg,,1,,Ljubljana,,Četrtna skupnost Moste,Ljubljana,1000,Ljubljana,Osrednjeslovenska
1000 LJUBLJANA,PRIJATELJEVA ULICA 2,46.04409,14.50840,Prijateljeva ulica,,2,,Ljubljana,,Četrtna skupnost Center,Ljubljana,1000,Ljubljana,Osrednjeslovenska
1000 LJUBLJANA,PRVOMAJSKA ULICA 5,46.05588,14.53132,Prvomajska ulica,,5,,Ljubljana,,Četrtna skupnost Moste,Ljubljana,1000,Ljubljana,Osrednjeslovenska
1000 LJUBLJANA,PUTRIHOVA ULICA 1,46.11509,14.46525,Putrihova ulica,,1,,Ljubljana,,Četrtna skupnost Šentvid,Ljubljana,1000,Ljubljana,Osrednjeslovenska
1000 LJUBLJANA,RAKUŠEVA ULICA 6,46.07678,14.48435,Rakuševa ulica,,6,,Ljubljana,,Četrtna skupnost Šiška,Ljubljana,1000,Ljubljana,Osrednjeslovenska
1000 LJUBLJANA,REDELONGHIJEVA ULICA 12,46.04099,14.48579,Redelonghijeva ulica,,12,,Ljubljana,,Četrtna skupnost Vič,Ljubljana,1000,Ljubljana,Osrednjeslovenska
1000 LJUBLJANA,ROŽANSKA ULICA 2,46.07340,14.50885,Rožanska ulica,,2,,Ljubljana,,Četrtna skupnost Bežigrad,Ljubljana,1000,Ljubljana,Osrednjeslovenska
1000 LJUBLJANA,"ROŽNA DOLINA, CESTA IV 45",46.04624,14.48124,"Rožna dolina, cesta IV",,45,,Ljubljana,,Četrtna skupnost Rožnik,Ljubljana,1000,Ljubljana,Osrednjeslovenska
1000 LJUBLJANA,"ROŽNA DOLINA, CESTA VII 21 A",46.04992,14.48188,"Rožna dolina, cesta VII",,21,A,Ljubljana,,Četrtna skupnost Rožnik,Ljubljana,1000,Ljubljana,Osrednjeslovenska
1000 LJUBLJANA,SAVLJE 74 C,46.09602,14.50020,Savlje,,74,C,Ljubljana,,Četrtna skupnost Posavje,Ljubljana,1000,Ljubljana,Osrednjeslovenska
1000 LJUBLJANA,SAVSKA CESTA 10,46.06433,14.52589,Savska cesta,,10,,Ljubljana,,Četrtna skupnost Jarše,Ljubljana,1000,Ljubljana,Osrednjeslovenska
1000 LJUBLJANA,SAVSKA CESTA 2,46.06365,14.52564,Savska cesta,,2,,Ljubljana,,Četrtna skupnost Jarše,Ljubljana,1000,Ljubljana,Osrednjeslovenska
1000 LJUBLJANA,SAVSKA CESTA 3,46.06440,14.52522,Savska cesta,,3,,Ljubljana,,Četrtna skupnost Bežigrad,Ljubljana,1000,Ljubljana,Osrednjeslovenska
1000 LJUBLJANA,SAVSKA CESTA 9,46.06398,14.52499,Savska cesta,,9,,Ljubljana,,Četrtna skupnost Bežigrad,Ljubljana,1000,Ljubljana,Osrednjeslovenska
1000 LJUBLJANA,SLOMŠKOVA ULICA 17,46.05559,14.51270,Slomškova ulica,,17,,Ljubljana,,Četrtna skupnost Center,Ljubljana,1000,Ljubljana,Osrednjeslovenska
1000 LJUBLJANA,SLOMŠKOVA ULICA 35,46.05529,14.51468,Slomškova ulica,,35,,Ljubljana,,Četrtna skupnost Center,Ljubljana,1000,Ljubljana,Osrednjeslovenska
1000 LJUBLJANA,SLOVENSKA CESTA 54,46.05614,14.50576,Slovenska cesta,,54,,Ljubljana,,Četrtna skupnost Center,Ljubljana,1000,Ljubljana,Osrednjeslovenska
1000 LJUBLJANA,STOŽICE 7,46.08458,14.52202,Stožice,,7,,Ljubljana,,Četrtna skupnost Posavje,Ljubljana,1000,Ljubljana,Osrednjeslovenska
1000 LJUBLJANA,TABOR 10,46.05420,14.51467,Tabor,,10,,Ljubljana,,Četrtna skupnost Center,Ljubljana,1000,Ljubljana,Osrednjeslovenska
1000 LJUBLJANA,TABOR 14,46.05442,14.51666,Tabor,,14,,Ljubljana,,Četrtna skupnost Center,Ljubljana,1000,Ljubljana,Osrednjeslovenska
1000 LJUBLJANA,TACENSKA CESTA 120,46.11646,14.46205,Tacenska cesta,,120,,Ljubljana,,Četrtna skupnost Šentvid,Ljubljana,1000,Ljubljana,Osrednjeslovenska
1000 LJUBLJANA,TBILISIJSKA ULICA 57 B,46.03694,14.47959,Tbilisijska ulica,,57,B,Ljubljana,,Četrtna skupnost Vič,Ljubljana,1000,Ljubljana,Osrednjeslovenska
1000 LJUBLJANA,TBILISIJSKA ULICA 59,46.03762,14.47887,Tbilisijska ulica,,59,,Ljubljana,,Četrtna skupnost Vič,Ljubljana,1000,Ljubljana,Osrednjeslovenska
1000 LJUBLJANA,TBILISIJSKA ULICA 81,46.03589,14.47775,Tbilisijska ulica,,81,,Ljubljana,,Četrtna skupnost Vič,Ljubljana,1000,Ljubljana,Osrednjeslovenska
1000 LJUBLJANA,TBILISIJSKA ULICA 89,46.03612,14.47919,Tbilisijska ulica,,89,,Ljubljana,,Četrtna skupnost Vič,Ljubljana,1000,Ljubljana,Osrednjeslovenska
1000 LJUBLJANA,TEHNOLOŠKI PARK 20,46.05045,14.46030,Tehnološki park,,20,,Ljubljana,,Četrtna skupnost Rožnik,Ljubljana,1000,Ljubljana,Osrednjeslovenska
1000 LJUBLJANA,TEHNOLOŠKI PARK 21,46.04931,14.46015,Tehnološki park,,21,,Ljubljana,,Četrtna skupnost Rožnik,Ljubljana,1000,Ljubljana,Osrednjeslovenska
1000 LJUBLJANA,TIVOLSKA CESTA 48,46.05758,14.50466,Tivolska cesta,,48,,Ljubljana,,Četrtna skupnost Center,Ljubljana,1000,Ljubljana,Osrednjeslovenska
1000 LJUBLJANA,TOPNIŠKA ULICA 4,46.06740,14.51179,Topniška ulica,,4,,Ljubljana,,Četrtna skupnost Bežigrad,Ljubljana,1000,Ljubljana,Osrednjeslovenska
1000 LJUBLJANA,TRIGLAVSKA ULICA 6,46.07328,14.50934,Triglavska ulica,,6,,Ljubljana,,Četrtna skupnost Bežigrad,Ljubljana,1000,Ljubljana,Osrednjeslovenska
1000 LJUBLJANA,TRUBARJEVA CESTA 2,46.05160,14.50665,Trubarjeva cesta,,2,,Ljubljana,,Četrtna skupnost Center,Ljubljana,1000,Ljubljana,Osrednjeslovenska
1000 LJUBLJANA,TRŽAŠKA CESTA 118,46.03963,14.47124,Tržaška cesta,,118,,Ljubljana,,Četrtna skupnost Vič,Ljubljana,1000,Ljubljana,Osrednjeslovenska
1000 LJUBLJANA,TRŽAŠKA CESTA 133,46.03812,14.47024,Tržaška cesta,,133,,Ljubljana,,Četrtna skupnost Vič,Ljubljana,1000,Ljubljana,Osrednjeslovenska
1000 LJUBLJANA,TRŽAŠKA CESTA 15,46.04632,14.49255,Tržaška cesta,,15,,Ljubljana,,Četrtna skupnost Vič,Ljubljana,1000,Ljubljana,Osrednjeslovenska
1000 LJUBLJANA,TRŽNA ULICA 3,46.06421,14.49368,Tržna ulica,,3,,Ljubljana,,Četrtna skupnost Šiška,Ljubljana,1000,Ljubljana,Osrednjeslovenska
1000 LJUBLJANA,UKMARJEVA ULICA 2,46.02058,14.53935,Ukmarjeva ulica,,2,,Ljubljana,,Četrtna skupnost Rudnik,Ljubljana,1000,Ljubljana,Osrednjeslovenska
1000 LJUBLJANA,UKMARJEVA ULICA 4,46.02086,14.53912,Ukmarjeva ulica,,4,,Ljubljana,,Četrtna skupnost Rudnik,Ljubljana,1000,Ljubljana,Osrednjeslovenska
1000 LJUBLJANA,ULICA ALME SODNIK 6,46.07385,14.49536,Ulica Alme Sodnik,,6,,Ljubljana,,Četrtna skupnost Šiška,Ljubljana,1000,Ljubljana,Osrednjeslovenska
1000 LJUBLJANA,ULICA BRATOV BABNIK 10,46.07645,14.46600,Ulica bratov Babnik,,10,,Ljubljana,,Četrtna skupnost Dravlje,Ljubljana,1000,Ljubljana,Osrednjeslovenska
1000 LJUBLJANA,ULICA BRATOV UČAKAR 58,46.07236,14.47342,Ulica bratov Učakar,,58,,Ljubljana,,Četrtna skupnost Šiška,Ljubljana,1000,Ljubljana,Osrednjeslovenska
1000 LJUBLJANA,ULICA BRATOV UČAKAR 64,46.07216,14.47257,Ulica bratov Učakar,,64,,Ljubljana,,Četrtna skupnost Šiška,Ljubljana,1000,Ljubljana,Osrednjeslovenska
1000 LJUBLJANA,ULICA LOJZETA SPACALA 10,46.06747,14.47210,Ulica Lojzeta Spacala,,10,,Ljubljana,,Četrtna skupnost Šiška,Ljubljana,1000,Ljubljana,Osrednjeslovenska
1000 LJUBLJANA,URANIČEVA ULICA 4 A,46.07105,14.47191,Uraničeva ulica,,4,A,Ljubljana,,Četrtna skupnost Šiška,Ljubljana,1000,Ljubljana,Osrednjeslovenska
1000 LJUBLJANA,V KLADEH 9,46.10876,14.45930,V Kladeh,,9,,Ljubljana,,Četrtna skupnost Šentvid,Ljubljana,1000,Ljubljana,Osrednjeslovenska
1000 LJUBLJANA,VILHARJEV PODHOD 1,46.06032,14.51507,Vilharjev podhod,,1,,Ljubljana,,Četrtna skupnost Bežigrad,Ljubljana,1000,Ljubljana,Osrednjeslovenska
1000 LJUBLJANA,VILHARJEV PODHOD 18,46.06015,14.51605,Vilharjev podhod,,18,,Ljubljana,,Četrtna skupnost Bežigrad,Ljubljana,1000,Ljubljana,Osrednjeslovenska
1000 LJUBLJANA,VILHARJEV PODHOD 7,46.06035,14.51578,Vilharjev podhod,,7,,Ljubljana,,Četrtna skupnost Bežigrad,Ljubljana,1000,Ljubljana,Osrednjeslovenska
1000 LJUBLJANA,VILHARJEVA CESTA 25,46.06020,14.51486,Vilharjeva cesta,,25,,Ljubljana,,Četrtna skupnost Bežigrad,Ljubljana,1000,Ljubljana,Osrednjeslovenska
1000 LJUBLJANA,VILHARJEVA CESTA 27,46.06020,14.51545,Vilharjeva cesta,,27,,Ljubljana,,Četrtna skupnost Bežigrad,Ljubljana,1000,Ljubljana,Osrednjeslovenska
1000 LJUBLJANA,VODNIKOVA CESTA 187,46.07405,14.47528,Vodnikova cesta,,187,,Ljubljana,,Četrtna skupnost Šiška,Ljubljana,1000,Ljubljana,Osrednjeslovenska
1000 LJUBLJANA,VODNIKOVA CESTA 56,46.06700,14.48819,Vodnikova cesta,,56,,Ljubljana,,Četrtna skupnost Šiška,Ljubljana,1000,Ljubljana,Osrednjeslovenska
1000 LJUBLJANA,VODOVODNA CESTA 100,46.07860,14.50306,Vodovodna cesta,,100,,Ljubljana,,Četrtna skupnost Šiška,Ljubljana,1000,Ljubljana,Osrednjeslovenska
1000 LJUBLJANA,VODOVODNA CESTA 109,46.07871,14.50194,Vodovodna cesta,,109,,Ljubljana,,Četrtna skupnost Šiška,Ljubljana,1000,Ljubljana,Osrednjeslovenska
1000 LJUBLJANA,VODOVODNA CESTA 99 A,46.07764,14.50248,Vodovodna cesta,,99,A,Ljubljana,,Četrtna skupnost Šiška,Ljubljana,1000,Ljubljana,Osrednjeslovenska
1000 LJUBLJANA,VOJKOVA CESTA 74,46.07115,14.52000,Vojkova cesta,,74,,Ljubljana,,Četrtna skupnost Bežigrad,Ljubljana,1000,Ljubljana,Osrednjeslovenska
1000 LJUBLJANA,"VRHOVCI, CESTA XVIII 3",46.04606,14.45584,"Vrhovci, cesta XVIII",,3,,Ljubljana,,Četrtna skupnost Rožnik,Ljubljana,1000,Ljubljana,Osrednjeslovenska
1000 LJUBLJANA,VURNIKOVA ULICA 9,46.06262,14.51543,Vurnikova ulica,,9,,Ljubljana,,Četrtna skupnost Bežigrad,Ljubljana,1000,Ljubljana,Osrednjeslovenska
1000 LJUBLJANA,ZALOŠKA CESTA 149,46.05654,14.55551,Zaloška cesta,,149,,Ljubljana,,Četrtna skupnost Moste,Ljubljana,1000,Ljubljana,Osrednjeslovenska
1000 LJUBLJANA,ZALOŠKA CESTA 159,46.05661,14.55866,Zaloška cesta,,159,,Ljubljana,,Četrtna skupnost Moste,Ljubljana,1000,Ljubljana,Osrednjeslovenska
1000 LJUBLJANA,ZALOŠKA CESTA 167,46.05636,14.56089,Zaloška cesta,,167,,Ljubljana,,Četrtna skupnost Moste,Ljubljana,1000,Ljubljana,Osrednjeslovenska
1000 LJUBLJANA,ZALOŠKA CESTA 2,46.05221,14.52078,Zaloška cesta,,2,,Ljubljana,,Četrtna skupnost Center,Ljubljana,1000,Ljubljana,Osrednjeslovenska
1000 LJUBLJANA,ZALOŠKA CESTA 269,46.06104,14.61452,Zaloška cesta,,269,,Ljubljana,,Četrtna skupnost Polje,Ljubljana,1000,Ljubljana,Osrednjeslovenska
1000 LJUBLJANA,ZALOŠKA CESTA 69,46.05637,14.53844,Zaloška cesta,,69,,Ljubljana,,Četrtna skupnost Moste,Ljubljana,1000,Ljubljana,Osrednjeslovenska
1000 LJUBLJANA,ZARNIKOVA ULICA 11,46.04835,14.51569,Zarnikova ulica,,11,,Ljubljana,,Četrtna skupnost Center,Ljubljana,1000,Ljubljana,Osrednjeslovenska
1000 LJUBLJANA,ZDRAVSTVENA POT 1,46.04729,14.51594,Zdravstvena pot,,1,,Ljubljana,,Četrtna skupnost Center,Ljubljana,1000,Ljubljana,Osrednjeslovenska
1000 LJUBLJANA,ZIHERLOVA ULICA 38,46.04095,14.50414,Ziherlova ulica,,38,,Ljubljana,,Četrtna skupnost Trnovo,Ljubljana,1000,Ljubljana,Osrednjeslovenska
1000 LJUBLJANA,ČUČKOVA ULICA 17,46.03501,14.45303,Čučkova ulica,,17,,Ljubljana,,Četrtna skupnost Vič,Ljubljana,1000,Ljubljana,Osrednjeslovenska
1000 LJUBLJANA,ŠARHOVA ULICA 20,46.07926,14.51017,Šarhova ulica,,20,,Ljubljana,,Četrtna skupnost Bežigrad,Ljubljana,1000,Ljubljana,Osrednjeslovenska
1000 LJUBLJANA,ŠESTOVA ULICA 10,46.04631,14.48719,Šestova ulica,,10,,Ljubljana,,Četrtna skupnost Vič,Ljubljana,1000,Ljubljana,Osrednjeslovenska
1000 LJUBLJANA,ŠIŠENSKA CESTA 44,46.07131,14.48026,Šišenska cesta,,44,,Ljubljana,,Četrtna skupnost Šiška,Ljubljana,1000,Ljubljana,Osrednjeslovenska
1000 LJUBLJANA,ŠLAJMERJEVA ULICA 6,46.05426,14.52502,Šlajmerjeva ulica,,6,,Ljubljana,,Četrtna skupnost Center,Ljubljana,1000,Ljubljana,Osrednjeslovenska
1000 LJUBLJANA,ŽELEZNA CESTA 10,46.06082,14.51403,Železna cesta,,10,,Ljubljana,,Četrtna skupnost Bežigrad,Ljubljana,1000,Ljubljana,Osrednjeslovenska
1000 LJUBLJANA,ŽELEZNA CESTA 16,46.06275,14.51369,Železna cesta,,16,,Ljubljana,,Četrtna skupnost Bežigrad,Ljubljana,1000,Ljubljana,Osrednjeslovenska
1000 LJUBLJANA,ŽIDOVSKA ULICA 1,46.04904,14.50499,Židovska ulica,,1,,Ljubljana,,Četrtna skupnost Center,Ljubljana,1000,Ljubljana,Osrednjeslovenska
1210 LJUBLJANA - ŠENTVID,CESTA NA POLJANE 24,46.09337,14.47463,Cesta na Poljane,,24,,Ljubljana,,Četrtna skupnost Šentvid,Ljubljana,1210,Ljubljana - Šentvid,Osrednjeslovenska
1210 LJUBLJANA - ŠENTVID,OB ZDRAVSTVENEM DOMU 1,46.09856,14.46490,Ob zdravstvenem domu,,1,,Ljubljana,,Četrtna skupnost Šentvid,Ljubljana,1210,Ljubljana - Šentvid,Osrednjeslovenska
1210 LJUBLJANA - ŠENTVID,REGENTOVA CESTA 70,46.08570,14.46599,Regentova cesta,,70,,Ljubljana,,Četrtna skupnost Šentvid,Ljubljana,1210,Ljubljana - Šentvid,Osrednjeslovenska
1210 LJUBLJANA - ŠENTVID,ULICA BRATOV KOMEL 25,46.09548,14.47256,Ulica bratov Komel,,25,,Ljubljana,,Četrtna skupnost Šentvid,Ljubljana,1210,Ljubljana - Šentvid,Osrednjeslovenska
1210 LJUBLJANA - ŠENTVID,ŠTULA 13 B,46.09649,14.46887,Štula,,13,B,Ljubljana,,Četrtna skupnost Šentvid,Ljubljana,1210,Ljubljana - Šentvid,Osrednjeslovenska
1211 LJUBLJANA - ŠMARTNO,NA PALCAH 2,46.12111,14.47331,Na Palcah,,2,,Ljubljana,,Četrtna skupnost Šmarna gora,Ljubljana,1211,Ljubljana - Šmartno,Osrednjeslovenska
1211 LJUBLJANA - ŠMARTNO,SPODNJE GAMELJNE 106,46.11851,14.50439,Spodnje Gameljne,,106,,Spodnje Gameljne,,Četrtna skupnost Šmarna gora,Ljubljana,1211,Ljubljana - Šmartno,Osrednjeslovenska
1215 MEDVODE,BIZANTOVA CESTA 14,46.13248,14.41437,Bizantova cesta,,14,,Medvode,,Preska - Žlebe,Medvode,1215,Medvode,Osrednjeslovenska
1215 MEDVODE,GORENJA VAS - RETEČE 58 B,46.15128,14.38319,Gorenja vas - Reteče,,58,B,Gorenja vas - Reteče,,Reteče - Gorenja vas,Škofja Loka,1215,Medvode,Gorenjska
1215 MEDVODE,OSTROVRHARJEVA ULICA 6,46.14535,14.40560,Ostrovrharjeva ulica,,6,,Medvode,,Medvode - center,Medvode,1215,Medvode,Osrednjeslovenska
1215 MEDVODE,ZBILJE 1 K,46.15600,14.40016,Zbilje,,1,K,Zbilje,,Zbilje,Medvode,1215,Medvode,Osrednjeslovenska
1217 VODICE,KOPITARJEV TRG 1,46.18729,14.49116,Kopitarjev trg,,1,,Vodice,,,Vodice,1217,Vodice,Osrednjeslovenska
1217 VODICE,UTIK 52,46.16785,14.50143,Utik,,52,,Utik,,,Vodice,1217,Vodice,Osrednjeslovenska
1218 KOMENDA,GLAVARJEVA CESTA 61 A,46.20453,14.53935,Glavarjeva cesta,,61,A,Komenda,,,Komenda,1218,Komenda,Osrednjeslovenska
1218 KOMENDA,KRANJSKA POT 5,46.20605,14.53743,Kranjska pot,,5,,Komenda,,,Komenda,1218,Komenda,Osrednjeslovenska
1218 KOMENDA,ZADRUŽNA ULICA 9,46.20483,14.53649,Zadružna ulica,,9,,Komenda,,,Komenda,1218,Komenda,Osrednjeslovenska
1219 LAZE V TUHINJU,LAZE V TUHINJU 29,46.21946,14.75656,Laze v Tuhinju,,29,,Laze v Tuhinju,,Tuhinj,Kamnik,1219,Laze v Tuhinju,Osrednjeslovenska
1225 LUKOVICA,TROJANSKA CESTA 13,46.17023,14.69393,Trojanska cesta,,13,,Lukovica pri Domžalah,,Lukovica,Lukovica,1225,Lukovica,Osrednjeslovenska
1230 DOMŽALE,CESTA TALCEV 10,46.13789,14.60258,Cesta talcev,,10,,Domžale,,Domžale - Slavka Šlandra,Domžale,1230,Domžale,Osrednjeslovenska
1230 DOMŽALE,DEPALA VAS 14 A,46.13366,14.57014,Depala vas,,14,A,Depala vas,,Domžale - Venclja Perka,Domžale,1230,Domžale,Osrednjeslovenska
1230 DOMŽALE,JELOVŠKOVA ULICA 7,46.15214,14.59054,Jelovškova ulica,,7,,Spodnje Jarše,,Jarše - Rodica,Domžale,1230,Domžale,Osrednjeslovenska
1230 DOMŽALE,KARANTANSKA CESTA 5,46.13811,14.59583,Karantanska cesta,,5,,Domžale,,Domžale - Slavka Šlandra,Domžale,1230,Domžale,Osrednjeslovenska
1230 DOMŽALE,LJUBLJANSKA CESTA 104,46.14268,14.59561,Ljubljanska cesta,,104,,Domžale,,Domžale - Slavka Šlandra,Domžale,1230,Domžale,Osrednjeslovenska
1230 DOMŽALE,LJUBLJANSKA CESTA 59,46.13762,14.58964,Ljubljanska cesta,,59,,Domžale,,Domžale - Venclja Perka,Domžale,1230,Domžale,Osrednjeslovenska
1230 DOMŽALE,MESTNI TRG 2,46.13975,14.59617,Mestni trg,,2,,Domžale,,Domžale - Slavka Šlandra,Domžale,1230,Domžale,Osrednjeslovenska
1230 DOMŽALE,PREŠERNOVA CESTA 21 B,46.14070,14.58948,Prešernova cesta,,21,B,Domžale,,Domžale - Venclja Perka,Domžale,1230,Domžale,Osrednjeslovenska
1230 DOMŽALE,SLAMNIKARSKA CESTA 3,46.13821,14.59837,Slamnikarska cesta,,3,,Domžale,,Domžale - Slavka Šlandra,Domžale,1230,Domžale,Osrednjeslovenska
1230 DOMŽALE,ULICA IVANA PENGOVA 20,46.14446,14.59689,Ulica Ivana Pengova,,20,,Domžale,,Domžale - Slavka Šlandra,Domžale,1230,Domžale,Osrednjeslovenska
1230 DOMŽALE,ČUFARJEVA ULICA 23,46.14778,14.60692,Čufarjeva ulica,,23,,Vir,,Toma Brejca - Vir,Domžale,1230,Domžale,Osrednjeslovenska
1231 LJUBLJANA - ČRNUČE,CESTA 24. JUNIJA 23,46.09681,14.52692,Cesta 24. junija,,23,,Ljubljana,,Četrtna skupnost Črnuče,Ljubljana,1231,Ljubljana - Črnuče,Osrednjeslovenska
1231 LJUBLJANA - ČRNUČE,CESTA 24. JUNIJA 31,46.09537,14.52704,Cesta 24. junija,,31,,Ljubljana,,Četrtna skupnost Črnuče,Ljubljana,1231,Ljubljana - Črnuče,Osrednjeslovenska
1231 LJUBLJANA - ČRNUČE,CESTA CENETA ŠTUPARJA 141,46.10763,14.53521,Cesta Ceneta Štuparja,,141,,Ljubljana,,Četrtna skupnost Črnuče,Ljubljana,1231,Ljubljana - Črnuče,Osrednjeslovenska
1231 LJUBLJANA - ČRNUČE,CESTA CENETA ŠTUPARJA 2 A,46.10367,14.53039,Cesta Ceneta Štuparja,,2,A,Ljubljana,,Četrtna skupnost Črnuče,Ljubljana,1231,Ljubljana - Črnuče,Osrednjeslovenska
1231 LJUBLJANA - ČRNUČE,DUNAJSKA CESTA 405,46.10448,14.53545,Dunajska cesta,,405,,Ljubljana,,Četrtna skupnost Črnuče,Ljubljana,1231,Ljubljana - Črnuče,Osrednjeslovenska
1231 LJUBLJANA - ČRNUČE,PETKOVA ULICA 16,46.09907,14.52792,Petkova ulica,,16,,Ljubljana,,Četrtna skupnost Črnuče,Ljubljana,1231,Ljubljana - Črnuče,Osrednjeslovenska
1231 LJUBLJANA - ČRNUČE,ZASAVSKA CESTA 95,46.09189,14.57495,Zasavska cesta,,95,,Ljubljana,,Četrtna skupnost Črnuče,Ljubljana,1231,Ljubljana - Črnuče,Osrednjeslovenska
1234 MENGEŠ,ALJAŽEVA ULICA 9,46.16990,14.57643,Aljaževa ulica,,9,,Mengeš,,,Mengeš,1234,Mengeš,Osrednjeslovenska
1234 MENGEŠ,GLAVNI TRG 13,46.16820,14.57322,Glavni trg,,13,,Mengeš,,,Mengeš,1234,Mengeš,Osrednjeslovenska
1234 MENGEŠ,ROPRETOVA CESTA 23,46.15862,14.56291,Ropretova cesta,,23,,Mengeš,,,Mengeš,1234,Mengeš,Osrednjeslovenska
1234 MENGEŠ,ZAVRTI 45,46.16750,14.57426,Zavrti,,45,,Mengeš,,,Mengeš,1234,Mengeš,Osrednjeslovenska
1234 MENGEŠ,ZORANINA ULICA 3,46.16207,14.57100,Zoranina ulica,,3,,Mengeš,,,Mengeš,1234,Mengeš,Osrednjeslovenska
1235 RADOMLJE,KAMNIŠKA CESTA 24,46.16800,14.59490,Kamniška cesta,,24,,Preserje pri Radomljah,,Preserje,Domžale,1235,Radomlje,Osrednjeslovenska
1235 RADOMLJE,PELECHOVA CESTA 18,46.16801,14.59744,Pelechova cesta,,18,,Preserje pri Radomljah,,Preserje,Domžale,1235,Radomlje,Osrednjeslovenska
1241 KAMNIK,LJUBLJANSKA CESTA 4 J,46.21694,14.60311,Ljubljanska cesta,,4,J,Kamnik,,Perovo,Kamnik,1241,Kamnik,Osrednjeslovenska
1241 KAMNIK,NA BREGU 24,46.21033,14.61271,Na bregu,,24,,Kamnik,,Novi trg,Kamnik,1241,Kamnik,Osrednjeslovenska
1241 KAMNIK,NA JASI 6,46.20853,14.61180,Na jasi,,6,,Kamnik,,Novi trg,Kamnik,1241,Kamnik,Osrednjeslovenska
1241 KAMNIK,NEVELJSKA POT 26,46.22911,14.61814,Neveljska pot,,26,,Mekinje,,Mekinje,Kamnik,1241,Kamnik,Osrednjeslovenska
1241 KAMNIK,NOVI TRG 26,46.22139,14.61328,Novi trg,,26,,Kamnik,,Novi trg,Kamnik,1241,Kamnik,Osrednjeslovenska
1241 KAMNIK,NOVI TRG 26 A,46.22082,14.61321,Novi trg,,26,A,Kamnik,,Novi trg,Kamnik,1241,Kamnik,Osrednjeslovenska
1241 KAMNIK,NOVI TRG 43 A,46.21914,14.61117,Novi trg,,43,A,Kamnik,,Novi trg,Kamnik,1241,Kamnik,Osrednjeslovenska
1241 KAMNIK,ŠUTNA 7,46.22403,14.60998,Šutna,,7,,Kamnik,,Kamnik-Center,Kamnik,1241,Kamnik,Osrednjeslovenska
1251 MORAVČE,VEGOVA ULICA 22,46.13743,14.74729,Vegova ulica,,22,,Moravče,,Moravče,Moravče,1251,Moravče,Osrednjeslovenska
1260 LJUBLJANA - POLJE,CHENGDUJSKA CESTA 45,46.05254,14.57167,Chengdujska cesta,,45,,Ljubljana,,Četrtna skupnost Moste,Ljubljana,1260,Ljubljana - Polje,Osrednjeslovenska
1260 LJUBLJANA - POLJE,KAŠELJSKA CESTA 59 A,46.05314,14.61107,Kašeljska cesta,,59,A,Ljubljana,,Četrtna skupnost Polje,Ljubljana,1260,Ljubljana - Polje,Osrednjeslovenska
1260 LJUBLJANA - POLJE,SNEBERSKA CESTA 128 B,46.07327,14.58924,Sneberska cesta,,128,B,Ljubljana,,Četrtna skupnost Polje,Ljubljana,1260,Ljubljana - Polje,Osrednjeslovenska
1260 LJUBLJANA - POLJE,ZADOBROVŠKA CESTA 18 A,46.05719,14.58402,Zadobrovška cesta,,18,A,Ljubljana,,Četrtna skupnost Polje,Ljubljana,1260,Ljubljana - Polje,Osrednjeslovenska
1262 DOL PRI LJUBLJANI,DOLSKO 55,46.09385,14.67776,Dolsko,,55,,Dolsko,,Dolsko,Dol pri Ljubljani,1262,Dol pri Ljubljani,Osrednjeslovenska
1262 DOL PRI LJUBLJANI,VIDEM 17,46.08670,14.63413,Videm,,17,,Videm,,Dol,Dol pri Ljubljani,1262,Dol pri Ljubljani,Osrednjeslovenska
1262 DOL PRI LJUBLJANI,VIDEM 17 C,46.08608,14.63269,Videm,,17,C,Videm,,Dol,Dol pri Ljubljani,1262,Dol pri Ljubljani,Osrednjeslovenska
1262 DOL PRI LJUBLJANI,VIDEM 54,46.08827,14.63948,Videm,,54,,Videm,,Dol,Dol pri Ljubljani,1262,Dol pri Ljubljani,Osrednjeslovenska
1270 LITIJA,PARTIZANSKA POT 8 A,46.05389,14.83656,Partizanska pot,,8,A,Litija,,Mestna skupnost Litija,Litija,1270,Litija,Zasavska
1270 LITIJA,PONOVIŠKA CESTA 6,46.05833,14.82866,Ponoviška cesta,,6,,Litija,,Mestna skupnost Litija,Litija,1270,Litija,Zasavska
1270 LITIJA,ULICA MIRE PREGLJEVE 1,46.05791,14.83210,Ulica Mire Pregljeve,,1,,Litija,,Mestna skupnost Litija,Litija,1270,Litija,Zasavska
1270 LITIJA,ZASAVSKA CESTA 3,46.05899,14.83352,Zasavska cesta,,3,,Litija,,Mestna skupnost Litija,Litija,1270,Litija,Zasavska
1275 ŠMARTNO PRI LITIJI,ČRNI POTOK 13,46.02553,14.83927,Črni Potok,,13,,Črni Potok,,Krajevna skupnost Vintarjevec,Šmartno pri Litiji,1275,Šmartno pri Litiji,Osrednjeslovenska
1290 GROSUPLJE,ADAMIČEVA CESTA 24 B,45.95652,14.65972,Adamičeva cesta,,24,B,Grosuplje,,Grosuplje,Grosuplje,1290,Grosuplje,Osrednjeslovenska
1290 GROSUPLJE,ADAMIČEVA CESTA 41 B,45.95673,14.66126,Adamičeva cesta,,41,B,Grosuplje,,Grosuplje,Grosuplje,1290,Grosuplje,Osrednjeslovenska
1290 GROSUPLJE,OB GROSUPELJŠČICI 28,45.96309,14.66212,Ob Grosupeljščici,,28,,Grosuplje,,Grosuplje,Grosuplje,1290,Grosuplje,Osrednjeslovenska
1290 GROSUPLJE,POD GOZDOM CESTA I 14,45.95943,14.65315,Pod gozdom cesta I,,14,,Grosuplje,,Grosuplje,Grosuplje,1290,Grosuplje,Osrednjeslovenska
1291 ŠKOFLJICA,DOLENJSKA CESTA 324 A,46.00139,14.55416,Dolenjska cesta,,324,A,Lavrica,,Lavrica,Škofljica,1291,Škofljica,Osrednjeslovenska
1291 ŠKOFLJICA,HRIBI 4,45.98755,14.57140,Hribi,,4,,Škofljica,,Škofljica,Škofljica,1291,Škofljica,Osrednjeslovenska
1291 ŠKOFLJICA,KOČEVSKA CESTA 25,45.98069,14.57676,Kočevska cesta,,25,,Škofljica,,Škofljica,Škofljica,1291,Škofljica,Osrednjeslovenska
1292 IG,BANIJA 4,45.95897,14.52720,Banija,,4,,Ig,,,Ig,1292,Ig,Osrednjeslovenska
1292 IG,DRAGA 1,45.94726,14.54796,Draga,,1,,Draga,,,Ig,1292,Ig,Osrednjeslovenska
1292 IG,PODGOZD 60,45.93073,14.53700,Podgozd,,60,,Podgozd,,,Ig,1292,Ig,Osrednjeslovenska
1294 VIŠNJA GORA,DEDNI DOL 33,45.96300,14.73778,Dedni Dol,,33,,Dedni Dol,,Višnja Gora,Ivančna Gorica,1294,Višnja Gora,Osrednjeslovenska
1295 IVANČNA GORICA,CESTA 2. GRUPE ODREDOV 16,45.93759,14.80558,Cesta 2. grupe odredov,,16,,Ivančna Gorica,,Ivančna Gorica,Ivančna Gorica,1295,Ivančna Gorica,Osrednjeslovenska
1295 IVANČNA GORICA,LJUBLJANSKA CESTA 16,45.93883,14.80347,Ljubljanska cesta,,16,,Ivančna Gorica,,Ivančna Gorica,Ivančna Gorica,1295,Ivančna Gorica,Osrednjeslovenska
1295 IVANČNA GORICA,SOKOLSKA ULICA 5,45.93826,14.80470,Sokolska ulica,,5,,Ivančna Gorica,,Ivančna Gorica,Ivančna Gorica,1295,Ivančna Gorica,Osrednjeslovenska
1296 ŠENTVID PRI STIČNI,RADOHOVA VAS 4,45.94397,14.87305,Radohova vas,,4,,Radohova vas,,Šentvid pri Stični,Ivančna Gorica,1296,Šentvid pri Stični,Osrednjeslovenska
1296 ŠENTVID PRI STIČNI,ŠENTVID PRI STIČNI 177,45.95086,14.83997,Šentvid pri Stični,,177,,Šentvid pri Stični,,Šentvid pri Stični,Ivančna Gorica,1296,Šentvid pri Stični,Osrednjeslovenska
1296 ŠENTVID PRI STIČNI,ŠENTVID PRI STIČNI 44,45.95403,14.83559,Šentvid pri Stični,,44,,Šentvid pri Stični,,Šentvid pri Stični,Ivančna Gorica,1296,Šentvid pri Stični,Osrednjeslovenska
1310 RIBNICA,KROŠNJARSKA POT 2,45.74333,14.72511,Krošnjarska pot,,2,,Ribnica,,Ribnica,Ribnica,1310,Ribnica,Jugovzhodna Slovenija
1310 RIBNICA,MAJNIKOVA ULICA 1,45.74238,14.72596,Majnikova ulica,,1,,Ribnica,,Ribnica,Ribnica,1310,Ribnica,Jugovzhodna Slovenija
1311 TURJAK,LAPORJE 30,45.87088,14.61679,Laporje,,30,,Laporje,,,Velike Lašče,1311,Turjak,Osrednjeslovenska
1311 TURJAK,VELIKI LOČNIK 35,45.90266,14.59821,Veliki Ločnik,,35,,Veliki Ločnik,,,Velike Lašče,1311,Turjak,Osrednjeslovenska
1312 VIDEM - DOBREPOLJE,PONIKVE 76,45.85607,14.64595,Ponikve,,76,,Ponikve,,Ponikve,Dobrepolje,1312,Videm - Dobrepolje,Osrednjeslovenska
1312 VIDEM - DOBREPOLJE,VIDEM 33 A,45.84861,14.69242,Videm,,33,A,Videm,,Videm,Dobrepolje,1312,Videm - Dobrepolje,Osrednjeslovenska
1312 VIDEM - DOBREPOLJE,VIDEM 37 A,45.84819,14.69546,Videm,,37,A,Videm,,Videm,Dobrepolje,1312,Videm - Dobrepolje,Osrednjeslovenska
1314 ROB,SEKIRIŠČE 8,45.86282,14.53744,Sekirišče,,8,,Sekirišče,,,Velike Lašče,1314,Rob,Osrednjeslovenska
1315 VELIKE LAŠČE,JAVORŠKOVA ULICA 9,45.83502,14.63767,Javorškova ulica,,9,,Velike Lašče,,,Velike Lašče,1315,Velike Lašče,Osrednjeslovenska
1330 KOČEVJE,KEKČEVA ULICA 3,45.64144,14.85424,Kekčeva ulica,,3,,Kočevje,,Kočevje-mesto,Kočevje,1330,Kočevje,Jugovzhodna Slovenija
1330 KOČEVJE,LJUBLJANSKA CESTA 19,45.64149,14.85688,Ljubljanska cesta,,19,,Kočevje,,Kočevje-mesto,Kočevje,1330,Kočevje,Jugovzhodna Slovenija
1330 KOČEVJE,ROŠKA CESTA 16,45.63880,14.86553,Roška cesta,,16,,Kočevje,,Kočevje-mesto,Kočevje,1330,Kočevje,Jugovzhodna Slovenija
1330 KOČEVJE,ROŠKA CESTA 17,45.63932,14.86400,Roška cesta,,17,,Kočevje,,Kočevje-mesto,Kočevje,1330,Kočevje,Jugovzhodna Slovenija
1330 KOČEVJE,ROŠKA CESTA 18,45.63938,14.86562,Roška cesta,,18,,Kočevje,,Kočevje-mesto,Kočevje,1330,Kočevje,Jugovzhodna Slovenija
1330 KOČEVJE,ROŠKA CESTA 22,45.64005,14.86716,Roška cesta,,22,,Kočevje,,Kočevje-mesto,Kočevje,1330,Kočevje,Jugovzhodna Slovenija
1351 BREZOVICA PRI LJUBLJANI,NOVA POT 5,46.00970,14.41547,Nova pot,,5,,Vnanje Gorice,,Vnanje Gorice,Brezovica,1351,Brezovica pri Ljubljani,Osrednjeslovenska
1351 BREZOVICA PRI LJUBLJANI,PODPEŠKA CESTA 14,46.02162,14.41607,Podpeška cesta,,14,,Brezovica pri Ljubljani,,Brezovica,Brezovica,1351,Brezovica pri Ljubljani,Osrednjeslovenska
1351 BREZOVICA PRI LJUBLJANI,PODPEŠKA CESTA 208,46.00242,14.41325,Podpeška cesta,,208,,Vnanje Gorice,,Vnanje Gorice,Brezovica,1351,Brezovica pri Ljubljani,Osrednjeslovenska
1352 PRESERJE,DOLENJA BREZOVICA 11,45.94773,14.42655,Dolenja Brezovica,,11,,Dolenja Brezovica,,Preserje,Brezovica,1352,Preserje,Osrednjeslovenska
1352 PRESERJE,JEZERO 1,45.97634,14.41959,Jezero,,1,,Jezero,,Preserje,Brezovica,1352,Preserje,Osrednjeslovenska
1352 PRESERJE,RAKITNA 96,45.89044,14.44624,Rakitna,,96,,Rakitna,,Rakitna,Brezovica,1352,Preserje,Osrednjeslovenska
1353 BOROVNICA,MEJAČEVA ULICA 3,45.91998,14.36563,Mejačeva ulica,,3,,Borovnica,,,Borovnica,1353,Borovnica,Osrednjeslovenska
1354 HORJUL,SLOVENSKA CESTA 17,46.02461,14.29536,Slovenska cesta,,17,,Horjul,,,Horjul,1354,Horjul,Osrednjeslovenska
1354 HORJUL,ŠENTJOŠT NAD HORJULOM 49 A,46.03859,14.22049,Šentjošt nad Horjulom,,49,A,Šentjošt nad Horjulom,,Šentjošt,Dobrova-Polhov Gradec,1354,Horjul,Osrednjeslovenska
1355 POLHOV GRADEC,BRIŠE PRI POLHOVEM GRADCU 1,46.05864,14.30332,Briše pri Polhovem Gradcu,,1,,Briše pri Polhovem Gradcu,,Polhov Gradec,Dobrova-Polhov Gradec,1355,Polhov Gradec,Osrednjeslovenska
1355 POLHOV GRADEC,PODREBER 12 C,46.06336,14.32001,Podreber,,12,C,Podreber,,Polhov Gradec,Dobrova-Polhov Gradec,1355,Polhov Gradec,Osrednjeslovenska
1355 POLHOV GRADEC,POLHOV GRADEC 13,46.06521,14.31457,Polhov Gradec,,13,,Polhov Gradec,,Polhov Gradec,Dobrova-Polhov Gradec,1355,Polhov Gradec,Osrednjeslovenska
1355 POLHOV GRADEC,PRAPROČE 3,46.05929,14.29500,Praproče,,3,,Praproče,,Polhov Gradec,Dobrova-Polhov Gradec,1355,Polhov Gradec,Osrednjeslovenska
1356 DOBROVA,BREZJE PRI DOBROVI 11,46.02784,14.34540,Brezje pri Dobrovi,,11,,Brezje pri Dobrovi,,Dobrova,Dobrova-Polhov Gradec,1356,Dobrova,Osrednjeslovenska
1356 DOBROVA,POLHOGRAJSKA CESTA 37,46.05477,14.41679,Polhograjska cesta,,37,,Dobrova,,Dobrova,Dobrova-Polhov Gradec,1356,Dobrova,Osrednjeslovenska
1356 DOBROVA,STRANSKA VAS 15,46.06359,14.42249,Stranska vas,,15,,Stranska vas,,Dobrova,Dobrova-Polhov Gradec,1356,Dobrova,Osrednjeslovenska
1356 DOBROVA,ULICA VLADIMIRJA DOLNIČARJA 11,46.05355,14.41726,Ulica Vladimirja Dolničarja,,11,,Dobrova,,Dobrova,Dobrova-Polhov Gradec,1356,Dobrova,Osrednjeslovenska
1357 NOTRANJE GORICE,GMAJNA 7,45.99556,14.40795,Gmajna,,7,,Notranje Gorice,,Notranje Gorice,Brezovica,1357,Notranje Gorice,Osrednjeslovenska
1357 NOTRANJE GORICE,PODPEŠKA CESTA 380,45.98948,14.40273,Podpeška cesta,,380,,Notranje Gorice,,Notranje Gorice,Brezovica,1357,Notranje Gorice,Osrednjeslovenska
1357 NOTRANJE GORICE,ZA MOSTIČKOM 14,45.99636,14.40920,Za mostičkom,,14,,Notranje Gorice,,Notranje Gorice,Brezovica,1357,Notranje Gorice,Osrednjeslovenska
1358 LOG PRI BREZOVICI,CESTA NA POLJE 2,46.00732,14.35305,Cesta na polje,,2,,Log pri Brezovici,,,Log-Dragomer,1358,Log pri Brezovici,Osrednjeslovenska
1360 VRHNIKA,BRIGADIRSKA CESTA 16,45.96273,14.30258,Brigadirska cesta,,16,,Verd,,Verd,Vrhnika,1360,Vrhnika,Osrednjeslovenska
1360 VRHNIKA,CESTA 6. MAJA 11,45.96278,14.29358,Cesta 6. maja,,11,,Vrhnika,,Vrhnika Center,Vrhnika,1360,Vrhnika,Osrednjeslovenska
1360 VRHNIKA,IDRIJSKA CESTA 13,45.96364,14.28875,Idrijska cesta,,13,,Vrhnika,,Vrhnika Vas,Vrhnika,1360,Vrhnika,Osrednjeslovenska
1360 VRHNIKA,MED VRTOVI 8,45.96540,14.28766,Med vrtovi,,8,,Vrhnika,,Vrhnika Vas,Vrhnika,1360,Vrhnika,Osrednjeslovenska
1360 VRHNIKA,NA KLANCU 22,45.96633,14.29340,Na klancu,,22,,Vrhnika,,Vrhnika Vas,Vrhnika,1360,Vrhnika,Osrednjeslovenska
1360 VRHNIKA,POD HRUŠEVCO 33,45.97336,14.29506,Pod Hruševco,,33,,Vrhnika,,Vrhnika Breg,Vrhnika,1360,Vrhnika,Osrednjeslovenska
1360 VRHNIKA,ROBOVA CESTA 6,45.96751,14.29722,Robova cesta,,6,,Vrhnika,,Vrhnika Breg,Vrhnika,1360,Vrhnika,Osrednjeslovenska
1360 VRHNIKA,SINJA GORICA 7,45.97963,14.31058,Sinja Gorica,,7,,Sinja Gorica,,Sinja Gorica,Vrhnika,1360,Vrhnika,Osrednjeslovenska
1360 VRHNIKA,STARA VRHNIKA 31,45.97727,14.28382,Stara Vrhnika,,31,,Stara Vrhnika,,Stara Vrhnika,Vrhnika,1360,Vrhnika,Osrednjeslovenska
1370 LOGATEC,GUBČEVA ULICA 1,45.91689,14.21786,Gubčeva ulica,,1,,Logatec,,Naklo,Logatec,1370,Logatec,Osrednjeslovenska
1370 LOGATEC,GUBČEVA ULICA 8 A,45.91896,14.21734,Gubčeva ulica,,8,A,Logatec,,Naklo,Logatec,1370,Logatec,Osrednjeslovenska
1370 LOGATEC,NOTRANJSKA CESTA 2,45.91681,14.22768,Notranjska cesta,,2,,Logatec,,Naklo,Logatec,1370,Logatec,Osrednjeslovenska
1370 LOGATEC,PARTIZANSKA ULICA 8 A,45.91832,14.22152,Partizanska ulica,,8,A,Logatec,,Naklo,Logatec,1370,Logatec,Osrednjeslovenska
1370 LOGATEC,ŠOLSKA POT 1,45.91693,14.22877,Šolska pot,,1,,Logatec,,Naklo,Logatec,1370,Logatec,Osrednjeslovenska
1380 CERKNICA,CESTA 4. MAJA 17,45.79122,14.36578,Cesta 4. maja,,17,,Cerknica,,Cerknica,Cerknica,1380,Cerknica,Primorsko-notranjska
1380 CERKNICA,CESTA POD SLIVNICO 21,45.79663,14.36783,Cesta pod Slivnico,,21,,Cerknica,,Cerknica,Cerknica,1380,Cerknica,Primorsko-notranjska
1386 STARI TRG PRI LOŽU,CESTA NOTRANJSKEGA ODREDA 36,45.71325,14.47221,Cesta Notranjskega odreda,,36,,Stari trg pri Ložu,,,Loška dolina,1386,Stari trg pri Ložu,Primorsko-notranjska
1410 ZAGORJE OB SAVI,CESTA 9. AVGUSTA 59 C,46.13569,15.00237,Cesta 9. avgusta,,59,C,Zagorje ob Savi,,Franc Farčnik,Zagorje ob Savi,1410,Zagorje ob Savi,Zasavska
1410 ZAGORJE OB SAVI,CESTA 9. AVGUSTA 8 B,46.13429,14.99599,Cesta 9. avgusta,,8,B,Zagorje ob Savi,,Jože Marn,Zagorje ob Savi,1410,Zagorje ob Savi,Zasavska
1410 ZAGORJE OB SAVI,CESTA ZMAGE 1,46.13384,14.99570,Cesta zmage,,1,,Zagorje ob Savi,,Jože Marn,Zagorje ob Savi,1410,Zagorje ob Savi,Zasavska
1410 ZAGORJE OB SAVI,MARNOVA ULICA 31 A,46.12735,14.99425,Marnova ulica,,31,A,Zagorje ob Savi,,Jože Marn,Zagorje ob Savi,1410,Zagorje ob Savi,Zasavska
1411 IZLAKE,IZLAKE 13,46.15540,14.92923,Izlake,,13,,Izlake,,Izlake,Zagorje ob Savi,1411,Izlake,Zasavska
1411 IZLAKE,PODLIPOVICA 43,46.16391,14.90922,Podlipovica,,43,,Podlipovica,,Izlake,Zagorje ob Savi,1411,Izlake,Zasavska
1420 TRBOVLJE,KOLONIJA 1. MAJA 21,46.15019,15.05220,Kolonija 1. maja,,21,,Trbovlje,,Fric Keršič,Trbovlje,1420,Trbovlje,Zasavska
1420 TRBOVLJE,OBRTNIŠKA CESTA 29,46.15872,15.05307,Obrtniška cesta,,29,,Trbovlje,,Franc Fakin,Trbovlje,1420,Trbovlje,Zasavska
1420 TRBOVLJE,OPEKARNA 1,46.14717,15.04335,Opekarna,,1,,Trbovlje,,Trbovlje - center,Trbovlje,1420,Trbovlje,Zasavska
1420 TRBOVLJE,RUDARSKA CESTA 12,46.15510,15.04796,Rudarska cesta,,12,,Trbovlje,,Trbovlje - center,Trbovlje,1420,Trbovlje,Zasavska
1420 TRBOVLJE,RUDARSKA CESTA 9,46.15398,15.04710,Rudarska cesta,,9,,Trbovlje,,Trbovlje - center,Trbovlje,1420,Trbovlje,Zasavska
1430 HRASTNIK,CESTA ADAMA DUŠAKA 6,46.14922,15.08593,Cesta Adama Dušaka,,6,,Hrastnik,,Rudnik,Hrastnik,1430,Hrastnik,Zasavska
1430 HRASTNIK,NOVI DOM 11,46.14030,15.08513,Novi dom,,11,,Hrastnik,,Rudnik,Hrastnik,1430,Hrastnik,Zasavska
1430 HRASTNIK,NOVI LOG 4 A,46.14167,15.08217,Novi log,,4,A,Hrastnik,,Rudnik,Hrastnik,1430,Hrastnik,Zasavska
1431 DOL PRI HRASTNIKU,TRG BORCEV NOB 13,46.14123,15.11613,Trg borcev NOB,,13,,Dol pri Hrastniku,,Dol pri Hrastniku,Hrastnik,1431,Dol pri Hrastniku,Zasavska
1433 RADEČE,ULICA OF 8,46.06587,15.18065,Ulica OF,,8,,Radeče,,Radeče,Radeče,1433,Radeče,Posavska
1434 LOKA PRI ZIDANEM MOSTU,LOKA PRI ZIDANEM MOSTU 48,46.05586,15.20767,Loka pri Zidanem Mostu,,48,,Loka pri Zidanem Mostu,,Loka pri Zidanem Mostu,Sevnica,1434,Loka pri Zidanem Mostu,Posavska
2000 MARIBOR,AŠKERČEVA ULICA 7,46.56465,15.65189,Aškerčeva ulica,,7,,Maribor,,Ivan Cankar,Maribor,2000,Maribor,Podravska
2000 MARIBOR,BETETTOVA ULICA 11,46.54059,15.63068,Betettova ulica,,11,,Maribor,,Nova vas,Maribor,2000,Maribor,Podravska
2000 MARIBOR,BETNAVSKA CESTA 13,46.54967,15.64086,Betnavska cesta,,13,,Maribor,,Magdalena,Maribor,2000,Maribor,Podravska
2000 MARIBOR,BORŠTNIKOVA ULICA 79,46.53511,15.62851,Borštnikova ulica,,79,,Maribor,,Radvanje,Maribor,2000,Maribor,Podravska
2000 MARIBOR,BORŠTNIKOVA ULICA 83,46.53525,15.62858,Borštnikova ulica,,83,,Maribor,,Radvanje,Maribor,2000,Maribor,Podravska
2000 MARIBOR,CAFOVA ULICA 4,46.56132,15.65551,Cafova ulica,,4,,Maribor,,Ivan Cankar,Maribor,2000,Maribor,Podravska
2000 MARIBOR,CANKARJEVA ULICA 23 A,46.56374,15.65253,Cankarjeva ulica,,23,A,Maribor,,Ivan Cankar,Maribor,2000,Maribor,Podravska
2000 MARIBOR,CANKARJEVA ULICA 6,46.56124,15.65334,Cankarjeva ulica,,6,,Maribor,,Ivan Cankar,Maribor,2000,Maribor,Podravska
2000 MARIBOR,CANKARJEVA ULICA 6 D,46.56117,15.65419,Cankarjeva ulica,,6,D,Maribor,,Ivan Cankar,Maribor,2000,Maribor,Podravska
2000 MARIBOR,CESTA OSVOBODILNE FRONTE 43,46.54995,15.66864,Cesta Osvobodilne fronte,,43,,Maribor,,Pobrežje,Maribor,2000,Maribor,Podravska
2000 MARIBOR,CESTA OSVOBODILNE FRONTE 44,46.54946,15.66849,Cesta Osvobodilne fronte,,44,,Maribor,,Pobrežje,Maribor,2000,Maribor,Podravska
2000 MARIBOR,CESTA PROLETARSKIH BRIGAD 79,46.54401,15.62699,Cesta proletarskih brigad,,79,,Maribor,,Nova vas,Maribor,2000,Maribor,Podravska
2000 MARIBOR,CESTA XIV. DIVIZIJE 30,46.55159,15.66267,Cesta XIV. divizije,,30,,Maribor,,Pobrežje,Maribor,2000,Maribor,Podravska
2000 MARIBOR,DVOŘAKOVA ULICA 10,46.55362,15.64424,Dvořakova ulica,,10,,Maribor,,Magdalena,Maribor,2000,Maribor,Podravska
2000 MARIBOR,GLAVNI TRG 4,46.55729,15.64522,Glavni trg,,4,,Maribor,,Center,Maribor,2000,Maribor,Podravska
2000 MARIBOR,GORKEGA ULICA 18,46.55341,15.64215,Gorkega ulica,,18,,Maribor,,Magdalena,Maribor,2000,Maribor,Podravska
2000 MARIBOR,GOSPEJNA ULICA 11,46.55957,15.64234,Gospejna ulica,,11,,Maribor,,Center,Maribor,2000,Maribor,Podravska
2000 MARIBOR,GOSPOSVETSKA CESTA 41,46.56126,15.63472,Gosposvetska cesta,,41,,Maribor,,Koroška vrata,Maribor,2000,Maribor,Podravska
2000 MARIBOR,HRENOVA ULICA 6,46.55432,15.62367,Hrenova ulica,,6,,Maribor,,Studenci,Maribor,2000,Maribor,Podravska
2000 MARIBOR,ISTRSKA ULICA 60,46.54753,15.67320,Istrska ulica,,60,,Maribor,,Pobrežje,Maribor,2000,Maribor,Podravska
2000 MARIBOR,JEZDARSKA ULICA 2,46.55118,15.64129,Jezdarska ulica,,2,,Maribor,,Magdalena,Maribor,2000,Maribor,Podravska
2000 MARIBOR,JEZDARSKA ULICA 7,46.55122,15.64209,Jezdarska ulica,,7,,Maribor,,Magdalena,Maribor,2000,Maribor,Podravska
2000 MARIBOR,KALOHOVA ULICA 18,46.55507,15.61747,Kalohova ulica,,18,,Maribor,,Studenci,Maribor,2000,Maribor,Podravska
2000 MARIBOR,KARDELJEVA CESTA 76,46.54170,15.63274,Kardeljeva cesta,,76,,Maribor,,Nova vas,Maribor,2000,Maribor,Podravska
2000 MARIBOR,KARDELJEVA CESTA 84,46.54116,15.63252,Kardeljeva cesta,,84,,Maribor,,Nova vas,Maribor,2000,Maribor,Podravska
2000 MARIBOR,KETTEJEVA ULICA 14,46.54801,15.63859,Kettejeva ulica,,14,,Maribor,,Tabor,Maribor,2000,Maribor,Podravska
2000 MARIBOR,KNAFELČEVA ULICA 31,46.53891,15.63321,Knafelčeva ulica,,31,,Maribor,,Nova vas,Maribor,2000,Maribor,Podravska
2000 MARIBOR,KOPITARJEVA ULICA 2,46.56326,15.65746,Kopitarjeva ulica,,2,,Maribor,,Ivan Cankar,Maribor,2000,Maribor,Podravska
2000 MARIBOR,KOROŠKA CESTA 113 C,46.56093,15.62844,Koroška cesta,,113,C,Maribor,,Koroška vrata,Maribor,2000,Maribor,Podravska
2000 MARIBOR,KOROŠKA CESTA 172,46.56600,15.62319,Koroška cesta,,172,,Maribor,,Koroška vrata,Maribor,2000,Maribor,Podravska
2000 MARIBOR,KOROŠKA CESTA 52,46.55910,15.63717,Koroška cesta,,52,,Maribor,,Koroška vrata,Maribor,2000,Maribor,Podravska
2000 MARIBOR,KOSOVA ULICA 9,46.54104,15.59950,Kosova ulica,,9,,Maribor,,Radvanje,Maribor,2000,Maribor,Podravska
2000 MARIBOR,KREKOVA ULICA 14 A,46.56236,15.64548,Krekova ulica,,14,A,Maribor,,Center,Maribor,2000,Maribor,Podravska
2000 MARIBOR,KREKOVA ULICA 5,46.56182,15.64708,Krekova ulica,,5,,Maribor,,Center,Maribor,2000,Maribor,Podravska
2000 MARIBOR,KRPANOVA ULICA 19,46.55582,15.62276,Krpanova ulica,,19,,Maribor,,Studenci,Maribor,2000,Maribor,Podravska
2000 MARIBOR,LAVRIČEVA ULICA 1,46.55817,15.63600,Lavričeva ulica,,1,,Maribor,,Koroška vrata,Maribor,2000,Maribor,Podravska
2000 MARIBOR,LAVRIČEVA ULICA 1 A,46.55814,15.63578,Lavričeva ulica,,1,A,Maribor,,Koroška vrata,Maribor,2000,Maribor,Podravska
2000 MARIBOR,LEONA ZALAZNIKA ULICA 35,46.57719,15.66905,Leona Zalaznika ulica,,35,,Maribor,,Ivan Cankar,Maribor,2000,Maribor,Podravska
2000 MARIBOR,LJUBLJANSKA ULICA 5,46.55289,15.64858,Ljubljanska ulica,,5,,Maribor,,Magdalena,Maribor,2000,Maribor,Podravska
2000 MARIBOR,LJUBLJANSKA ULICA 9,46.55337,15.64665,Ljubljanska ulica,,9,,Maribor,,Magdalena,Maribor,2000,Maribor,Podravska
2000 MARIBOR,MAGDALENSKI TRG 7,46.55409,15.64675,Magdalenski trg,,7,,Maribor,,Magdalena,Maribor,2000,Maribor,Podravska
2000 MARIBOR,MASARYKOVA ULICA 26,46.55161,15.64827,Masarykova ulica,,26,,Maribor,,Magdalena,Maribor,2000,Maribor,Podravska
2000 MARIBOR,MEJNA ULICA 6,46.55388,15.65783,Mejna ulica,,6,,Maribor,,Pobrežje,Maribor,2000,Maribor,Podravska
2000 MARIBOR,MELJSKI DOL 36,46.57005,15.66523,Meljski dol,,36,,Maribor,,Center,Maribor,2000,Maribor,Podravska
2000 MARIBOR,METELKOVA ULICA 48,46.54221,15.64158,Metelkova ulica,,48,,Maribor,,Tabor,Maribor,2000,Maribor,Podravska
2000 MARIBOR,MINAŘIKOVA ULICA 6,46.53211,15.66589,Minařikova ulica,,6,,Maribor,,Tezno,Maribor,2000,Maribor,Podravska
2000 MARIBOR,MLADINSKA ULICA 54,46.56505,15.63517,Mladinska ulica,,54,,Maribor,,Koroška vrata,Maribor,2000,Maribor,Podravska
2000 MARIBOR,NA SOSESKI 14,46.53872,15.63408,Na soseski,,14,,Maribor,,Nova vas,Maribor,2000,Maribor,Podravska
2000 MARIBOR,NA TRATI 2,46.53586,15.68739,Na trati,,2,,Maribor,,Brezje-Dogoše-Zrkovci,Maribor,2000,Maribor,Podravska
2000 MARIBOR,OB GOZDU 21,46.54720,15.65998,Ob gozdu,,21,,Maribor,,Pobrežje,Maribor,2000,Maribor,Podravska
2000 MARIBOR,OBLAKOVA ULICA 4,46.54231,15.63117,Oblakova ulica,,4,,Maribor,,Nova vas,Maribor,2000,Maribor,Podravska
2000 MARIBOR,PANONSKA ULICA 41,46.52555,15.67945,Panonska ulica,,41,,Maribor,,Tezno,Maribor,2000,Maribor,Podravska
2000 MARIBOR,PARK MLADIH 4,46.54607,15.64304,Park mladih,,4,,Maribor,,Tabor,Maribor,2000,Maribor,Podravska
2000 MARIBOR,PARTIZANSKA CESTA 49,46.56252,15.65721,Partizanska cesta,,49,,Maribor,,Ivan Cankar,Maribor,2000,Maribor,Podravska
2000 MARIBOR,PARTIZANSKA CESTA 59,46.56358,15.65790,Partizanska cesta,,59,,Maribor,,Ivan Cankar,Maribor,2000,Maribor,Podravska
2000 MARIBOR,PEKRSKA CESTA 56,46.55488,15.61140,Pekrska cesta,,56,,Maribor,,Studenci,Maribor,2000,Maribor,Podravska
2000 MARIBOR,POBREŠKA CESTA 18,46.55397,15.65315,Pobreška cesta,,18,,Maribor,,Magdalena,Maribor,2000,Maribor,Podravska
2000 MARIBOR,POBREŠKA CESTA 6,46.55441,15.64665,Pobreška cesta,,6,,Maribor,,Magdalena,Maribor,2000,Maribor,Podravska
2000 MARIBOR,POHORSKA ULICA 21 B,46.53831,15.60509,Pohorska ulica,,21,B,Maribor,,Radvanje,Maribor,2000,Maribor,Podravska
2000 MARIBOR,PRVOMAJSKA ULICA 1,46.53682,15.65983,Prvomajska ulica,,1,,Maribor,,Tezno,Maribor,2000,Maribor,Podravska
2000 MARIBOR,PRVOMAJSKA ULICA 25,46.53329,15.66758,Prvomajska ulica,,25,,Maribor,,Tezno,Maribor,2000,Maribor,Podravska
2000 MARIBOR,PUPINOVA ULICA 2,46.55272,15.64503,Pupinova ulica,,2,,Maribor,,Magdalena,Maribor,2000,Maribor,Podravska
2000 MARIBOR,RADVANJSKA CESTA 134,46.53554,15.62451,Radvanjska cesta,,134,,Maribor,,Radvanje,Maribor,2000,Maribor,Podravska
2000 MARIBOR,RAZLAGOVA ULICA 24,46.56193,15.65446,Razlagova ulica,,24,,Maribor,,Ivan Cankar,Maribor,2000,Maribor,Podravska
2000 MARIBOR,RIBNIŠKA ULICA 5,46.56844,15.64870,Ribniška ulica,,5,,Maribor,,Center,Maribor,2000,Maribor,Podravska
2000 MARIBOR,SLOVENSKA ULICA 17,46.56015,15.64534,Slovenska ulica,,17,,Maribor,,Center,Maribor,2000,Maribor,Podravska
2000 MARIBOR,SLOVENSKA ULICA 33,46.56005,15.64318,Slovenska ulica,,33,,Maribor,,Center,Maribor,2000,Maribor,Podravska
2000 MARIBOR,STROSSMAYERJEVA ULICA 32 B,46.56277,15.64333,Strossmayerjeva ulica,,32,B,Maribor,,Center,Maribor,2000,Maribor,Podravska
2000 MARIBOR,TOLSTOJEVA ULICA 3,46.54793,15.67025,Tolstojeva ulica,,3,,Maribor,,Pobrežje,Maribor,2000,Maribor,Podravska
2000 MARIBOR,TOMŠIČEVA ULICA 23,46.56585,15.65337,Tomšičeva ulica,,23,,Maribor,,Ivan Cankar,Maribor,2000,Maribor,Podravska
2000 MARIBOR,TOMŠIČEVA ULICA 6,46.56540,15.65090,Tomšičeva ulica,,6,,Maribor,,Ivan Cankar,Maribor,2000,Maribor,Podravska
2000 MARIBOR,TRUBARJEVA ULICA 15,46.56466,15.64435,Trubarjeva ulica,,15,,Maribor,,Koroška vrata,Maribor,2000,Maribor,Podravska
2000 MARIBOR,ULICA BORCEV 1 B,46.53636,15.68832,Ulica borcev,,1,B,Maribor,,Brezje-Dogoše-Zrkovci,Maribor,2000,Maribor,Podravska
2000 MARIBOR,ULICA HEROJA BRAČIČA 6,46.55796,15.65023,Ulica heroja Bračiča,,6,,Maribor,,Center,Maribor,2000,Maribor,Podravska
2000 MARIBOR,ULICA HEROJA JEVTIČA 9,46.55912,15.66242,Ulica heroja Jevtiča,,9,,Maribor,,Center,Maribor,2000,Maribor,Podravska
2000 MARIBOR,ULICA HEROJA NANDETA 31,46.53267,15.67335,Ulica heroja Nandeta,,31,,Maribor,,Tezno,Maribor,2000,Maribor,Podravska
2000 MARIBOR,ULICA HEROJA NANDETA 37,46.53310,15.67376,Ulica heroja Nandeta,,37,,Maribor,,Tezno,Maribor,2000,Maribor,Podravska
2000 MARIBOR,ULICA KNEZA KOCLJA 11,46.55769,15.65032,Ulica kneza Koclja,,11,,Maribor,,Center,Maribor,2000,Maribor,Podravska
2000 MARIBOR,ULICA MOŠE PIJADA 21 B,46.55325,15.64301,Ulica Moše Pijada,,21,B,Maribor,,Magdalena,Maribor,2000,Maribor,Podravska
2000 MARIBOR,ULICA PARIŠKE KOMUNE 42,46.54732,15.64697,Ulica Pariške komune,,42,,Maribor,,Tabor,Maribor,2000,Maribor,Podravska
2000 MARIBOR,ULICA ROBERTA KUKOVCA 15,46.53491,15.62707,Ulica Roberta Kukovca,,15,,Maribor,,Radvanje,Maribor,2000,Maribor,Podravska
2000 MARIBOR,ULICA STANETA SEVERJA 7,46.53749,15.63301,Ulica Staneta Severja,,7,,Maribor,,Nova vas,Maribor,2000,Maribor,Podravska
2000 MARIBOR,ULICA TALCEV 25,46.55679,15.65152,Ulica talcev,,25,,Maribor,,Center,Maribor,2000,Maribor,Podravska
2000 MARIBOR,ULICA TALCEV 9,46.55933,15.65183,Ulica talcev,,9,,Maribor,,Center,Maribor,2000,Maribor,Podravska
2000 MARIBOR,VALVASORJEVA ULICA 38,46.55444,15.63680,Valvasorjeva ulica,,38,,Maribor,,Magdalena,Maribor,2000,Maribor,Podravska
2000 MARIBOR,VEZNA POT 1,46.57373,15.64297,Vezna pot,,1,,Ribniško selo,,Center,Maribor,2000,Maribor,Podravska
2000 MARIBOR,VINARSKA ULICA 6,46.56527,15.64339,Vinarska ulica,,6,,Maribor,,Koroška vrata,Maribor,2000,Maribor,Podravska
2000 MARIBOR,VRBANSKA CESTA 35,46.56527,15.63387,Vrbanska cesta,,35,,Maribor,,Koroška vrata,Maribor,2000,Maribor,Podravska
2000 MARIBOR,ZRKOVSKA CESTA 188 D,46.54943,15.68951,Zrkovska cesta,,188,D,Maribor,,Pobrežje,Maribor,2000,Maribor,Podravska
2000 MARIBOR,ZRKOVSKA CESTA 67,46.55598,15.67174,Zrkovska cesta,,67,,Maribor,,Pobrežje,Maribor,2000,Maribor,Podravska
2000 MARIBOR,ČUFARJEVA CESTA 9,46.55499,15.66939,Čufarjeva cesta,,9,,Maribor,,Pobrežje,Maribor,2000,Maribor,Podravska
2000 MARIBOR,ŠENTILJSKA CESTA 9,46.56690,15.65897,Šentiljska cesta,,9,,Maribor,,Ivan Cankar,Maribor,2000,Maribor,Podravska
2000 MARIBOR,ŽELEZNIKOVA ULICA 4,46.55037,15.66738,Železnikova ulica,,4,,Maribor,,Pobrežje,Maribor,2000,Maribor,Podravska
2000 MARIBOR,ŽIDOVSKA ULICA 2,46.55703,15.64754,Židovska ulica,,2,,Maribor,,Center,Maribor,2000,Maribor,Podravska
2000 MARIBOR,ŽOLGARJEVA ULICA 14,46.54949,15.64170,Žolgarjeva ulica,,14,,Maribor,,Magdalena,Maribor,2000,Maribor,Podravska
2000 MARIBOR,ŽOLGARJEVA ULICA 7,46.55030,15.64122,Žolgarjeva ulica,,7,,Maribor,,Magdalena,Maribor,2000,Maribor,Podravska
2201 ZGORNJA KUNGOTA,PLINTOVEC 7 B,46.63896,15.61566,Plintovec,,7,B,Plintovec,,Zgornja Kungota,Kungota,2201,Zgornja Kungota,Podravska
2201 ZGORNJA KUNGOTA,SVEČINA 3,46.67456,15.58636,Svečina,,3,,Svečina,,Svečina,Kungota,2201,Zgornja Kungota,Podravska
2204 MIKLAVŽ NA DRAVSKEM POLJU,PTUJSKA CESTA 110,46.50217,15.70260,Ptujska cesta,,110,,Miklavž na Dravskem polju,,Miklavž na Dravskem polju,Miklavž na Dravskem polju,2204,Miklavž na Dravskem polju,Podravska
2204 MIKLAVŽ NA DRAVSKEM POLJU,PTUJSKA CESTA 13,46.51263,15.69050,Ptujska cesta,,13,,Miklavž na Dravskem polju,,Miklavž na Dravskem polju,Miklavž na Dravskem polju,2204,Miklavž na Dravskem polju,Podravska
2204 MIKLAVŽ NA DRAVSKEM POLJU,PTUJSKA CESTA 17,46.51272,15.69091,Ptujska cesta,,17,,Miklavž na Dravskem polju,,Miklavž na Dravskem polju,Miklavž na Dravskem polju,2204,Miklavž na Dravskem polju,Podravska
2204 MIKLAVŽ NA DRAVSKEM POLJU,ULICA PLANINČEVIH 73,46.50204,15.70132,Ulica Planinčevih,,73,,Miklavž na Dravskem polju,,Miklavž na Dravskem polju,Miklavž na Dravskem polju,2204,Miklavž na Dravskem polju,Podravska
2211 PESNICA PRI MARIBORU,PESNICA PRI MARIBORU 42 C,46.60846,15.67654,Pesnica pri Mariboru,,42,C,Pesnica pri Mariboru,,Pesnica pri Mariboru,Pesnica,2211,Pesnica pri Mariboru,Podravska
2211 PESNICA PRI MARIBORU,PESNICA PRI MARIBORU 68,46.61828,15.66616,Pesnica pri Mariboru,,68,,Pesnica pri Mariboru,,Pesnica pri Mariboru,Pesnica,2211,Pesnica pri Mariboru,Podravska
2212 ŠENTILJ V SLOV. GORICAH,MLADINSKA ULICA 38,46.67417,15.66116,Mladinska ulica,,38,,Šentilj v Slov. goricah,,Šentilj,Šentilj,2212,Šentilj v Slov. goricah,Podravska
2212 ŠENTILJ V SLOV. GORICAH,POD HRIBOM 12,46.67974,15.65495,Pod hribom,,12,,Šentilj v Slov. goricah,,Šentilj,Šentilj,2212,Šentilj v Slov. goricah,Podravska
2212 ŠENTILJ V SLOV. GORICAH,POD HRIBOM 14,46.67994,15.65514,Pod hribom,,14,,Šentilj v Slov. goricah,,Šentilj,Šentilj,2212,Šentilj v Slov. goricah,Podravska
2214 SLADKI VRH,SLADKI VRH 5,46.69756,15.73680,Sladki Vrh,,5,,Sladki Vrh,,Sladki Vrh,Šentilj,2214,Sladki Vrh,Podravska
2221 JARENINA,VUKOVSKI DOL 30,46.62155,15.71991,Vukovski Dol,,30,,Vukovski Dol,,Jarenina,Pesnica,2221,Jarenina,Podravska
2229 MALEČNIK,MALEČNIK 14,46.55410,15.70257,Malečnik,,14,,Malečnik,,Malečnik-Ruperče,Maribor,2229,Malečnik,Podravska
2230 LENART V SLOV. GORICAH,GREGORČIČEVA ULICA 1,46.57373,15.83203,Gregorčičeva ulica,,1,,Lenart v Slov. goricah,,Lenart,Lenart,2230,Lenart v Slov. goricah,Podravska
2230 LENART V SLOV. GORICAH,GUBČEVA ULICA 5,46.57869,15.82838,Gubčeva ulica,,5,,Lenart v Slov. goricah,,Lenart,Lenart,2230,Lenart v Slov. goricah,Podravska
2230 LENART V SLOV. GORICAH,HRASTOVEC V SLOV. GORICAH 22,46.56511,15.78691,Hrastovec v Slov. goricah,,22,,Hrastovec v Slov. goricah,,Lenart,Lenart,2230,Lenart v Slov. goricah,Podravska
2230 LENART V SLOV. GORICAH,ILAUNIGOVA ULICA 15,46.57697,15.82809,Ilaunigova ulica,,15,,Lenart v Slov. goricah,,Lenart,Lenart,2230,Lenart v Slov. goricah,Podravska
2230 LENART V SLOV. GORICAH,MAISTROVA ULICA 22,46.57734,15.82896,Maistrova ulica,,22,,Lenart v Slov. goricah,,Lenart,Lenart,2230,Lenart v Slov. goricah,Podravska
2230 LENART V SLOV. GORICAH,RADEHOVA 5 C,46.56767,15.84591,Radehova,,5,C,Radehova,,Lenart,Lenart,2230,Lenart v Slov. goricah,Podravska
2233 SV. ANA V SLOV. GORICAH,KREMBERK 36 A,46.64786,15.84250,Kremberk,,36,A,Kremberk,,,Sveta Ana,2233,Sv. Ana v Slov. goricah,Podravska
2241 SPODNJI DUPLEK,CESTA 4. JULIJA 65,46.50187,15.75064,Cesta 4. julija,,65,,Spodnji Duplek,,Spodnji Duplek,Duplek,2241,Spodnji Duplek,Podravska
2241 SPODNJI DUPLEK,CESTA K DRAVI 8,46.50113,15.74875,Cesta k Dravi,,8,,Spodnji Duplek,,Spodnji Duplek,Duplek,2241,Spodnji Duplek,Podravska
2241 SPODNJI DUPLEK,KORENSKA CESTA 31,46.50402,15.75597,Korenska cesta,,31,,Spodnji Duplek,,Spodnji Duplek,Duplek,2241,Spodnji Duplek,Podravska
2241 SPODNJI DUPLEK,ZGORNJI DUPLEK 103 A,46.51524,15.72835,Zgornji Duplek,,103,A,Zgornji Duplek,,Zgornji Duplek,Duplek,2241,Spodnji Duplek,Podravska
2242 ZGORNJA KORENA,ŽIKARCE 1 A,46.52291,15.78266,Žikarce,,1,A,Žikarce,,Korena,Duplek,2242,Zgornja Korena,Podravska
2250 PTUJ,LANGUSOVA ULICA 8,46.43101,15.88301,Langusova ulica,,8,,Ptuj,,Četrt Ljudski vrt,Ptuj,2250,Ptuj,Podravska
2250 PTUJ,NA TRATAH 4,46.41683,15.87719,Na tratah,,4,,Ptuj,,Četrt Jezero,Ptuj,2250,Ptuj,Podravska
2250 PTUJ,OSOJNIKOVA CESTA 9,46.42061,15.87558,Osojnikova cesta,,9,,Ptuj,,Četrt Center,Ptuj,2250,Ptuj,Podravska
2250 PTUJ,PANONSKA ULICA 5,46.42388,15.87348,Panonska ulica,,5,,Ptuj,,Četrt Center,Ptuj,2250,Ptuj,Podravska
2250 PTUJ,POT V TOPLICE 9,46.42154,15.85575,Pot v toplice,,9,,Ptuj,,Četrt Breg-Turnišče,Ptuj,2250,Ptuj,Podravska
2250 PTUJ,POTRČEVA CESTA 15,46.42472,15.87653,Potrčeva cesta,,15,,Ptuj,,Četrt Center,Ptuj,2250,Ptuj,Podravska
2250 PTUJ,POTRČEVA CESTA 17,46.42485,15.87672,Potrčeva cesta,,17,,Ptuj,,Četrt Center,Ptuj,2250,Ptuj,Podravska
2250 PTUJ,POTRČEVA CESTA 19 A,46.42513,15.87566,Potrčeva cesta,,19,A,Ptuj,,Četrt Center,Ptuj,2250,Ptuj,Podravska
2250 PTUJ,POTRČEVA CESTA 23,46.42609,15.87709,Potrčeva cesta,,23,,Ptuj,,Četrt Center,Ptuj,2250,Ptuj,Podravska
2250 PTUJ,POTRČEVA CESTA 33,46.42660,15.87898,Potrčeva cesta,,33,,Ptuj,,Četrt Ljudski vrt,Ptuj,2250,Ptuj,Podravska
2250 PTUJ,POTRČEVA CESTA 4 A,46.42174,15.87383,Potrčeva cesta,,4,A,Ptuj,,Četrt Center,Ptuj,2250,Ptuj,Podravska
2250 PTUJ,POTRČEVA CESTA 49,46.42764,15.88104,Potrčeva cesta,,49,,Ptuj,,Četrt Ljudski vrt,Ptuj,2250,Ptuj,Podravska
2250 PTUJ,PUHOVA ULICA 9 A,46.41829,15.88530,Puhova ulica,,9,A,Ptuj,,Četrt Jezero,Ptuj,2250,Ptuj,Podravska
2250 PTUJ,RAJŠPOVA ULICA 16,46.41951,15.88151,Rajšpova ulica,,16,,Ptuj,,Četrt Jezero,Ptuj,2250,Ptuj,Podravska
2250 PTUJ,RAJŠPOVA ULICA 20,46.42031,15.88207,Rajšpova ulica,,20,,Ptuj,,Četrt Jezero,Ptuj,2250,Ptuj,Podravska
2250 PTUJ,ROGOZNIŠKA CESTA 32,46.42610,15.88611,Rogozniška cesta,,32,,Ptuj,,Četrt Jezero,Ptuj,2250,Ptuj,Podravska
2250 PTUJ,ROGOZNIŠKA CESTA 32 A,46.42600,15.88643,Rogozniška cesta,,32,A,Ptuj,,Četrt Jezero,Ptuj,2250,Ptuj,Podravska
2250 PTUJ,SLOVENSKOGORIŠKA CESTA 39,46.43302,15.88830,Slovenskogoriška cesta,,39,,Ptuj,,Četrt Rogoznica,Ptuj,2250,Ptuj,Podravska
2250 PTUJ,TRSTENJAKOVA ULICA 5,46.42110,15.87385,Trstenjakova ulica,,5,,Ptuj,,Četrt Center,Ptuj,2250,Ptuj,Podravska
2250 PTUJ,TRSTENJAKOVA ULICA 9,46.42049,15.87424,Trstenjakova ulica,,9,,Ptuj,,Četrt Center,Ptuj,2250,Ptuj,Podravska
2250 PTUJ,VOLKMERJEVA CESTA 10,46.42436,15.87378,Volkmerjeva cesta,,10,,Ptuj,,Četrt Center,Ptuj,2250,Ptuj,Podravska
2250 PTUJ,VOLKMERJEVA CESTA 63,46.43203,15.86728,Volkmerjeva cesta,,63,,Ptuj,,Četrt Ljudski vrt,Ptuj,2250,Ptuj,Podravska
2250 PTUJ,ŠPINDLERJEVA ULICA 1,46.42695,15.89034,Špindlerjeva ulica,,1,,Ptuj,,Četrt Jezero,Ptuj,2250,Ptuj,Podravska
2252 DORNAVA,DORNAVA 128,46.43170,15.94637,Dornava,,128,,Dornava,,,Dornava,2252,Dornava,Podravska
2252 DORNAVA,DORNAVA 135 A,46.43405,15.95139,Dornava,,135,A,Dornava,,,Dornava,2252,Dornava,Podravska
2253 DESTRNIK,DESTRNIK 9,46.49296,15.87572,Destrnik,,9,,Destrnik,,,Destrnik,2253,Destrnik,Podravska
2253 DESTRNIK,VINTAROVCI 26 B,46.49824,15.86096,Vintarovci,,26,B,Vintarovci,,,Destrnik,2253,Destrnik,Podravska
2254 TRNOVSKA VAS,TRNOVSKA VAS 42 A,46.51993,15.88594,Trnovska vas,,42,A,Trnovska vas,,Vaška sk. Trnovska vas,Trnovska vas,2254,Trnovska vas,Podravska
2256 JURŠINCI,JURŠINCI 3,46.48566,15.96784,Juršinci,,3,,Juršinci,,,Juršinci,2256,Juršinci,Podravska
2270 ORMOŽ,PTUJSKA CESTA 25,46.40749,16.14359,Ptujska cesta,,25,,Ormož,,Ormož,Ormož,2270,Ormož,Podravska
2270 ORMOŽ,PTUJSKA CESTA 33,46.40715,16.14132,Ptujska cesta,,33,,Ormož,,Ormož,Ormož,2270,Ormož,Podravska
2270 ORMOŽ,ULICA DR. HROVATA 10 A,46.40632,16.14308,Ulica dr. Hrovata,,10,A,Ormož,,Ormož,Ormož,2270,Ormož,Podravska
2270 ORMOŽ,ULICA DR. HROVATA 4,46.40724,16.14333,Ulica dr. Hrovata,,4,,Ormož,,Ormož,Ormož,2270,Ormož,Podravska
2272 GORIŠNICA,GORIŠNICA 65,46.41047,16.01167,Gorišnica,,65,,Gorišnica,,,Gorišnica,2272,Gorišnica,Podravska
2273 PODGORCI,PODGORCI 48,46.42049,16.04944,Podgorci,,48,,Podgorci,,Podgorci,Ormož,2273,Podgorci,Podravska
2274 VELIKA NEDELJA,VIČANCI 16,46.44350,16.07500,Vičanci,,16,,Vičanci,,Velika Nedelja,Ormož,2274,Velika Nedelja,Podravska
2281 MARKOVCI,MARKOVCI 43,46.39430,15.93041,Markovci,,43,,Markovci,,,Markovci,2281,Markovci,Podravska
2282 CIRKULANE,CIRKULANE 28,46.34593,15.99901,Cirkulane,,28,,Cirkulane,,,Cirkulane,2282,Cirkulane,Podravska
2284 VIDEM PRI PTUJU,VIDEM PRI PTUJU 51,46.36906,15.90255,Videm pri Ptuju,,51,,Videm pri Ptuju,,Kraj.skupnost Videm pri Ptuju,Videm,2284,Videm pri Ptuju,Podravska
2286 PODLEHNIK,PODLEHNIK 9,46.33608,15.87803,Podlehnik,,9,,Podlehnik,,,Podlehnik,2286,Podlehnik,Podravska
2288 HAJDINA,ZGORNJA HAJDINA 127,46.40832,15.83889,Zgornja Hajdina,,127,,Zgornja Hajdina,,,Hajdina,2288,Hajdina,Podravska
2288 HAJDINA,ZGORNJA HAJDINA 44 A,46.40766,15.83712,Zgornja Hajdina,,44,A,Zgornja Hajdina,,,Hajdina,2288,Hajdina,Podravska
2310 SLOVENSKA BISTRICA,ALJAŽEVA ULICA 6 A,46.37967,15.55602,Aljaževa ulica,,6,A,Slovenska Bistrica,,Pohorski odred,Slovenska Bistrica,2310,Slovenska Bistrica,Podravska
2310 SLOVENSKA BISTRICA,DEVINA 13 B,46.40484,15.57309,Devina,,13,B,Devina,,Alfonz Šarh,Slovenska Bistrica,2310,Slovenska Bistrica,Podravska
2310 SLOVENSKA BISTRICA,DEVINSKA ULICA 11,46.39787,15.57986,Devinska ulica,,11,,Slovenska Bistrica,,Alfonz Šarh,Slovenska Bistrica,2310,Slovenska Bistrica,Podravska
2310 SLOVENSKA BISTRICA,LJUBLJANSKA CESTA 1,46.39170,15.57307,Ljubljanska cesta,,1,,Slovenska Bistrica,,Dr. Jagodiča,Slovenska Bistrica,2310,Slovenska Bistrica,Podravska
2310 SLOVENSKA BISTRICA,LJUBLJANSKA CESTA 80,46.38414,15.56447,Ljubljanska cesta,,80,,Slovenska Bistrica,,Pohorski odred,Slovenska Bistrica,2310,Slovenska Bistrica,Podravska
2310 SLOVENSKA BISTRICA,MROŽEVA ULICA 3,46.39615,15.55526,Mroževa ulica,,3,,Slovenska Bistrica,,Pohorski odred,Slovenska Bistrica,2310,Slovenska Bistrica,Podravska
2310 SLOVENSKA BISTRICA,PARTIZANSKA ULICA 1,46.39183,15.57195,Partizanska ulica,,1,,Slovenska Bistrica,,Dr. Jagodiča,Slovenska Bistrica,2310,Slovenska Bistrica,Podravska
2310 SLOVENSKA BISTRICA,PARTIZANSKA ULICA 30,46.39552,15.56233,Partizanska ulica,,30,,Slovenska Bistrica,,Pohorski odred,Slovenska Bistrica,2310,Slovenska Bistrica,Podravska
2310 SLOVENSKA BISTRICA,TRG ALFONZA ŠARHA 18,46.39443,15.57367,Trg Alfonza Šarha,,18,,Slovenska Bistrica,,Alfonz Šarh,Slovenska Bistrica,2310,Slovenska Bistrica,Podravska
2310 SLOVENSKA BISTRICA,TRG SVOBODE 26,46.39244,15.57267,Trg svobode,,26,,Slovenska Bistrica,,Dr. Jagodiča,Slovenska Bistrica,2310,Slovenska Bistrica,Podravska
2310 SLOVENSKA BISTRICA,ULICA BORISA WINTERJA 10,46.38857,15.57340,Ulica Borisa Winterja,,10,,Slovenska Bistrica,,Dr. Jagodiča,Slovenska Bistrica,2310,Slovenska Bistrica,Podravska
2310 SLOVENSKA BISTRICA,VISOLE 166 A,46.39751,15.52669,Visole,,166,A,Visole,,Impol,Slovenska Bistrica,2310,Slovenska Bistrica,Podravska
2310 SLOVENSKA BISTRICA,ŠOLSKA ULICA 16,46.39170,15.56173,Šolska ulica,,16,,Slovenska Bistrica,,Pohorski odred,Slovenska Bistrica,2310,Slovenska Bistrica,Podravska
2311 HOČE,GLASERJEV TRG 1,46.49941,15.64910,Glaserjev trg,,1,,Spodnje Hoče,,Hoče,Hoče-Slivnica,2311,Hoče,Podravska
2312 OREHOVA VAS,OREHOVA CESTA 26,46.47242,15.66588,Orehova cesta,,26,,Orehova vas,,Orehova-Hotinja vas,Hoče-Slivnica,2312,Orehova vas,Podravska
2312 OREHOVA VAS,POLANSKA CESTA 7,46.47807,15.64895,Polanska cesta,,7,,Slivnica pri Mariboru,,Slivnica,Hoče-Slivnica,2312,Orehova vas,Podravska
2312 OREHOVA VAS,VILENSKA CESTA 76,46.46908,15.64691,Vilenska cesta,,76,,Radizel,,Slivnica,Hoče-Slivnica,2312,Orehova vas,Podravska
2313 FRAM,CAFOVA ULICA 1,46.45644,15.62696,Cafova ulica,,1,,Fram,,Fram,Rače-Fram,2313,Fram,Podravska
2314 ZGORNJA POLSKAVA,MLADINSKA ULICA 12,46.42702,15.61079,Mladinska ulica,,12,,Zgornja Polskava,,Zgornja Polskava,Slovenska Bistrica,2314,Zgornja Polskava,Podravska
2317 OPLOTNICA,ULICA POHORSKEGA BATALJONA 1,46.38720,15.44625,Ulica Pohorskega bataljona,,1,,Oplotnica,,,Oplotnica,2317,Oplotnica,Podravska
2317 OPLOTNICA,ULICA POHORSKEGA BATALJONA 11,46.38817,15.44733,Ulica Pohorskega bataljona,,11,,Oplotnica,,,Oplotnica,2317,Oplotnica,Podravska
2317 OPLOTNICA,ŠOLSKA ULICA 8,46.38845,15.44971,Šolska ulica,,8,,Oplotnica,,,Oplotnica,2317,Oplotnica,Podravska
2318 LAPORJE,LAPORJE 50,46.34763,15.59456,Laporje,,50,,Laporje,,Laporje,Slovenska Bistrica,2318,Laporje,Podravska
2319 POLJČANE,BISTRIŠKA CESTA 60,46.31333,15.57836,Bistriška cesta,,60,,Poljčane,,,Poljčane,2319,Poljčane,Podravska
2319 POLJČANE,BISTRIŠKA CESTA 62,46.31290,15.57823,Bistriška cesta,,62,,Poljčane,,,Poljčane,2319,Poljčane,Podravska
2319 POLJČANE,BISTRIŠKA CESTA 97,46.30821,15.57729,Bistriška cesta,,97,,Poljčane,,,Poljčane,2319,Poljčane,Podravska
2319 POLJČANE,POTRČEVA ULICA 1,46.30471,15.58068,Potrčeva ulica,,1,,Zgornje Poljčane,,,Poljčane,2319,Poljčane,Podravska
2321 MAKOLE,MAKOLE 28,46.31735,15.66729,Makole,,28,,Makole,,Vaška skupnost Makole,Makole,2321,Makole,Podravska
2322 MAJŠPERK,BREG 6 A,46.33947,15.73623,Breg,,6,A,Breg,,Krajevna skupnost Majšperk,Majšperk,2322,Majšperk,Podravska
2325 KIDRIČEVO,MLADINSKA ULICA 9,46.40408,15.79488,Mladinska ulica,,9,,Kidričevo,,,Kidričevo,2325,Kidričevo,Podravska
2326 CIRKOVCE,CIRKOVCE 47,46.39472,15.72270,Cirkovce,,47,,Cirkovce,,,Kidričevo,2326,Cirkovce,Podravska
2327 RAČE,CESTA TALCEV 16,46.45171,15.68422,Cesta talcev,,16,,Rače,,Rače,Rače-Fram,2327,Rače,Podravska
2327 RAČE,GOZDNA ULICA 24,46.44844,15.66863,Gozdna ulica,,24,,Rače,,Rače,Rače-Fram,2327,Rače,Podravska
2327 RAČE,LJUBLJANSKA CESTA 14 A,46.45367,15.67455,Ljubljanska cesta,,14,A,Rače,,Rače,Rače-Fram,2327,Rače,Podravska
2327 RAČE,NOVA ULICA 5,46.45384,15.67405,Nova ulica,,5,,Rače,,Rače,Rače-Fram,2327,Rače,Podravska
2331 PRAGERSKO,KOLODVORSKA ULICA 3,46.39521,15.66135,Kolodvorska ulica,,3,,Pragersko,,Pragersko,Slovenska Bistrica,2331,Pragersko,Podravska
2341 LIMBUŠ,LACKOVA CESTA 135,46.54667,15.59819,Lackova cesta,,135,,Pekre,,Pekre,Maribor,2341,Limbuš,Podravska
2341 LIMBUŠ,LACKOVA CESTA 242,46.55204,15.58536,Lackova cesta,,242,,Limbuš,,Limbuš,Maribor,2341,Limbuš,Podravska
2341 LIMBUŠ,LACKOVA CESTA 269,46.55387,15.58161,Lackova cesta,,269,,Limbuš,,Limbuš,Maribor,2341,Limbuš,Podravska
2341 LIMBUŠ,ULICA 30. MAJA 12,46.54964,15.58761,Ulica 30. maja,,12,,Limbuš,,Limbuš,Maribor,2341,Limbuš,Podravska
2341 LIMBUŠ,ULICA LACKOVEGA ODREDA 6,46.55328,15.58435,Ulica Lackovega odreda,,6,,Limbuš,,Limbuš,Maribor,2341,Limbuš,Podravska
2342 RUŠE,SMOLNIK 7 C,46.53253,15.48966,Smolnik,,7,C,Smolnik,,,Ruše,2342,Ruše,Podravska
2342 RUŠE,STADIONSKA ULICA 2,46.54266,15.50658,Stadionska ulica,,2,,Ruše,,,Ruše,2342,Ruše,Podravska
2342 RUŠE,STADIONSKA ULICA 4,46.54277,15.50623,Stadionska ulica,,4,,Ruše,,,Ruše,2342,Ruše,Podravska
2342 RUŠE,ULICA RUŠKE ČETE 14,46.53997,15.51611,Ulica Ruške čete,,14,,Ruše,,,Ruše,2342,Ruše,Podravska
2344 LOVRENC NA POHORJU,GORNJI TRG 37,46.53780,15.38462,Gornji trg,,37,,Lovrenc na Pohorju,,,Lovrenc na Pohorju,2344,Lovrenc na Pohorju,Podravska
2344 LOVRENC NA POHORJU,OB RADOLJNI 47,46.53252,15.38504,Ob Radoljni,,47,,Lovrenc na Pohorju,,,Lovrenc na Pohorju,2344,Lovrenc na Pohorju,Podravska
2345 BISTRICA OB DRAVI,INDUSTRIJSKA ULICA 33,46.55630,15.54903,Industrijska ulica,,33,,Bistrica ob Dravi,,,Ruše,2345,Bistrica ob Dravi,Podravska
2351 KAMNICA,CESTA V ROŠPOH 24 A,46.57287,15.61260,Cesta v Rošpoh,,24,A,Kamnica,,Kamnica,Maribor,2351,Kamnica,Podravska
2351 KAMNICA,VRBANSKA CESTA 97,46.57321,15.61582,Vrbanska cesta,,97,,Kamnica,,Kamnica,Maribor,2351,Kamnica,Podravska
2352 SELNICA OB DRAVI,GASILSKA ULICA 3,46.55124,15.49124,Gasilska ulica,,3,,Selnica ob Dravi,,,Selnica ob Dravi,2352,Selnica ob Dravi,Podravska
2352 SELNICA OB DRAVI,SLOVENSKI TRG 4,46.55150,15.49303,Slovenski trg,,4,,Selnica ob Dravi,,,Selnica ob Dravi,2352,Selnica ob Dravi,Podravska
2352 SELNICA OB DRAVI,SPODNJI SLEMEN 11,46.56018,15.52055,Spodnji Slemen,,11,,Spodnji Slemen,,,Selnica ob Dravi,2352,Selnica ob Dravi,Podravska
2352 SELNICA OB DRAVI,SPODNJI SLEMEN 13,46.55702,15.51711,Spodnji Slemen,,13,,Spodnji Slemen,,,Selnica ob Dravi,2352,Selnica ob Dravi,Podravska
2354 BRESTERNICA,CESTA NA ŽAVCERJA 15,46.56716,15.57100,Cesta na Žavcerja,,15,,Jelovec,,Bresternica-Gaj,Maribor,2354,Bresternica,Podravska
2354 BRESTERNICA,NA GAJ 2,46.56709,15.57691,Na Gaj,,2,,Bresternica,,Bresternica-Gaj,Maribor,2354,Bresternica,Podravska
2354 BRESTERNICA,ŠOBER 2 A,46.61777,15.56238,Šober,,2,A,Šober,,Bresternica-Gaj,Maribor,2354,Bresternica,Podravska
2360 RADLJE OB DRAVI,KOROŠKA CESTA 67 A,46.61537,15.21131,Koroška cesta,,67,A,Radlje ob Dravi,,Radlje ob Dravi,Radlje ob Dravi,2360,Radlje ob Dravi,Koroška
2360 RADLJE OB DRAVI,MARIBORSKA CESTA 37,46.61372,15.23075,Mariborska cesta,,37,,Radlje ob Dravi,,Radlje ob Dravi,Radlje ob Dravi,2360,Radlje ob Dravi,Koroška
2360 RADLJE OB DRAVI,PARTIZANSKA ULICA 38,46.61458,15.22869,Partizanska ulica,,38,,Radlje ob Dravi,,Radlje ob Dravi,Radlje ob Dravi,2360,Radlje ob Dravi,Koroška
2366 MUTA,CESTA OB POTOKU 11,46.61491,15.16381,Cesta ob potoku,,11,,Muta,,,Muta,2366,Muta,Koroška
2366 MUTA,GLAVNI TRG 47,46.61055,15.16488,Glavni trg,,47,,Muta,,,Muta,2366,Muta,Koroška
2367 VUZENICA,MLADINSKA ULICA 17,46.59873,15.16440,Mladinska ulica,,17,,Vuzenica,,,Vuzenica,2367,Vuzenica,Koroška
2370 DRAVOGRAD,MARIBORSKA CESTA 38,46.59024,15.02867,Mariborska cesta,,38,,Dravograd,,Dravograd,Dravograd,2370,Dravograd,Koroška
2370 DRAVOGRAD,TRG 4. JULIJA 4,46.58962,15.02470,Trg 4. julija,,4,,Dravograd,,Dravograd,Dravograd,2370,Dravograd,Koroška
2370 DRAVOGRAD,TRG 4. JULIJA 9,46.58921,15.02233,Trg 4. julija,,9,,Dravograd,,Dravograd,Dravograd,2370,Dravograd,Koroška
2370 DRAVOGRAD,ČRNEČE 146,46.58918,14.99866,Črneče,,146,,Črneče,,Črneče,Dravograd,2370,Dravograd,Koroška
2380 SLOVENJ GRADEC,FRANCETOVA CESTA 16,46.51331,15.08347,Francetova cesta,,16,,Slovenj Gradec,,Legen-mesto,Slovenj Gradec,2380,Slovenj Gradec,Koroška
2380 SLOVENJ GRADEC,GOSPOSVETSKA CESTA 1,46.50766,15.08173,Gosposvetska cesta,,1,,Slovenj Gradec,,Center,Slovenj Gradec,2380,Slovenj Gradec,Koroška
2380 SLOVENJ GRADEC,KOPALIŠKA ULICA 29,46.50613,15.08509,Kopališka ulica,,29,,Slovenj Gradec,,Center,Slovenj Gradec,2380,Slovenj Gradec,Koroška
2380 SLOVENJ GRADEC,OB SUHODOLNICI 31,46.50331,15.07270,Ob Suhodolnici,,31,,Slovenj Gradec,,Štibuh,Slovenj Gradec,2380,Slovenj Gradec,Koroška
2380 SLOVENJ GRADEC,PARTIZANSKA POT 16,46.50693,15.08202,Partizanska pot,,16,,Slovenj Gradec,,Center,Slovenj Gradec,2380,Slovenj Gradec,Koroška
2380 SLOVENJ GRADEC,PREŠERNOVA ULICA 3 C,46.51484,15.08390,Prešernova ulica,,3,C,Slovenj Gradec,,Legen-mesto,Slovenj Gradec,2380,Slovenj Gradec,Koroška
2381 PODGORJE PRI SLOVENJ GRADCU,PODGORJE 64 A,46.48078,15.07995,Podgorje,,64,A,Podgorje,,Podgorje,Slovenj Gradec,2381,Podgorje pri Slovenj Gradcu,Koroška
2382 MISLINJA,ŠOLSKA CESTA 55,46.44475,15.19541,Šolska cesta,,55,,Mislinja,,,Mislinja,2382,Mislinja,Koroška
2390 RAVNE NA KOROŠKEM,GAČNIKOVA POT 3,46.54417,14.96289,Gačnikova pot,,3,,Ravne na Koroškem,,TRG,Ravne na Koroškem,2390,Ravne na Koroškem,Koroška
2390 RAVNE NA KOROŠKEM,JAVORNIK 21,46.54480,14.97000,Javornik,,21,,Ravne na Koroškem,,JAVORNIK - ŠANCE,Ravne na Koroškem,2390,Ravne na Koroškem,Koroška
2390 RAVNE NA KOROŠKEM,OB SUHI 11,46.54286,14.96765,Ob Suhi,,11,,Ravne na Koroškem,,TRG,Ravne na Koroškem,2390,Ravne na Koroškem,Koroška
2390 RAVNE NA KOROŠKEM,OB SUHI 11 A,46.54267,14.96782,Ob Suhi,,11,A,Ravne na Koroškem,,TRG,Ravne na Koroškem,2390,Ravne na Koroškem,Koroška
2390 RAVNE NA KOROŠKEM,OB SUHI 5,46.54372,14.96774,Ob Suhi,,5,,Ravne na Koroškem,,TRG,Ravne na Koroškem,2390,Ravne na Koroškem,Koroška
2390 RAVNE NA KOROŠKEM,OB SUHI 5 B,46.54319,14.96729,Ob Suhi,,5,B,Ravne na Koroškem,,TRG,Ravne na Koroškem,2390,Ravne na Koroškem,Koroška
2390 RAVNE NA KOROŠKEM,OB SUHI 9,46.54334,14.96795,Ob Suhi,,9,,Ravne na Koroškem,,TRG,Ravne na Koroškem,2390,Ravne na Koroškem,Koroška
2390 RAVNE NA KOROŠKEM,PARTIZANSKA CESTA 4,46.54452,14.96530,Partizanska cesta,,4,,Ravne na Koroškem,,TRG,Ravne na Koroškem,2390,Ravne na Koroškem,Koroška
2390 RAVNE NA KOROŠKEM,TRG SVOBODE 18 A,46.54428,14.96559,Trg svobode,,18,A,Ravne na Koroškem,,TRG,Ravne na Koroškem,2390,Ravne na Koroškem,Koroška
2391 PREVALJE,NA FARI 50,46.54731,14.92759,Na Fari,,50,,Prevalje,,,Prevalje,2391,Prevalje,Koroška
2391 PREVALJE,PRI BRANČURNIKU 10,46.54492,14.93243,Pri Brančurniku,,10,,Prevalje,,,Prevalje,2391,Prevalje,Koroška
2391 PREVALJE,TRG 32,46.54497,14.91429,Trg,,32,,Prevalje,,,Prevalje,2391,Prevalje,Koroška
2391 PREVALJE,TRG 58 A,46.54639,14.91692,Trg,,58,A,Prevalje,,,Prevalje,2391,Prevalje,Koroška
2392 MEŽICA,PARTIZANSKA CESTA 17,46.51905,14.85387,Partizanska cesta,,17,,Mežica,,,Mežica,2392,Mežica,Koroška
2392 MEŽICA,SMREČNIKOVO 20,46.52036,14.84696,Smrečnikovo,,20,,Mežica,,,Mežica,2392,Mežica,Koroška
2393 ČRNA NA KOROŠKEM,CENTER 144,46.46870,14.85491,Center,,144,,Črna na Koroškem,,,Črna na Koroškem,2393,Črna na Koroškem,Koroška
3000 CELJE,AŠKERČEVA ULICA 1,46.23003,15.26747,Aškerčeva ulica,,1,,Celje,,Center,Celje,3000,Celje,Savinjska
3000 CELJE,AŠKERČEVA ULICA 14,46.23059,15.26804,Aškerčeva ulica,,14,,Celje,,Center,Celje,3000,Celje,Savinjska
3000 CELJE,CANKARJEVA ULICA 6,46.22964,15.26602,Cankarjeva ulica,,6,,Celje,,Center,Celje,3000,Celje,Savinjska
3000 CELJE,CESTA V ZADOBROVO 12,46.25725,15.29632,Cesta v Zadobrovo,,12,,Trnovlje pri Celju,,Trnovlje,Celje,3000,Celje,Savinjska
3000 CELJE,GAJI 28,46.24473,15.28996,Gaji,,28,,Trnovlje pri Celju,,Trnovlje,Celje,3000,Celje,Savinjska
3000 CELJE,GLEDALIŠKA ULICA 4,46.23047,15.26256,Gledališka ulica,,4,,Celje,,Center,Celje,3000,Celje,Savinjska
3000 CELJE,GREGORČIČEVA ULICA 5,46.23224,15.26227,Gregorčičeva ulica,,5,,Celje,,Dolgo polje,Celje,3000,Celje,Savinjska
3000 CELJE,IPAVČEVA ULICA 15,46.23572,15.25939,Ipavčeva ulica,,15,,Celje,,Dolgo polje,Celje,3000,Celje,Savinjska
3000 CELJE,IPAVČEVA ULICA 24,46.23912,15.25964,Ipavčeva ulica,,24,,Celje,,Dolgo polje,Celje,3000,Celje,Savinjska
3000 CELJE,JENKOVA ULICA 20,46.23594,15.26216,Jenkova ulica,,20,,Celje,,Dolgo polje,Celje,3000,Celje,Savinjska
3000 CELJE,JENKOVA ULICA 36,46.23621,15.26007,Jenkova ulica,,36,,Celje,,Dolgo polje,Celje,3000,Celje,Savinjska
3000 CELJE,JURČIČEVA ULICA 6,46.22928,15.25830,Jurčičeva ulica,,6,,Celje,,Kajuh,Celje,3000,Celje,Savinjska
3000 CELJE,LAVA 7,46.24025,15.25318,Lava,,7,,Celje,,Medlog,Celje,3000,Celje,Savinjska
3000 CELJE,LJUBLJANSKA CESTA 14,46.23244,15.25968,Ljubljanska cesta,,14,,Celje,,Slavko Šlander,Celje,3000,Celje,Savinjska
3000 CELJE,LJUBLJANSKA CESTA 16,46.23357,15.25688,Ljubljanska cesta,,16,,Celje,,Slavko Šlander,Celje,3000,Celje,Savinjska
3000 CELJE,MARIBORSKA CESTA 88,46.24030,15.27542,Mariborska cesta,,88,,Celje,,Gaberje,Celje,3000,Celje,Savinjska
3000 CELJE,MIKLOŠIČEVA ULICA 1,46.23111,15.26519,Miklošičeva ulica,,1,,Celje,,Center,Celje,3000,Celje,Savinjska
3000 CELJE,MILČINSKEGA ULICA 14,46.24745,15.27811,Milčinskega ulica,,14,,Celje,,Gaberje,Celje,3000,Celje,Savinjska
3000 CELJE,NA GOLOVCU 2,46.24446,15.26860,Na Golovcu,,2,,Celje,,Gaberje,Celje,3000,Celje,Savinjska
3000 CELJE,NAZORJEVA ULICA 14,46.23485,15.24024,Nazorjeva ulica,,14,,Celje,,Medlog,Celje,3000,Celje,Savinjska
3000 CELJE,OB KOPRIVNICI 21,46.25056,15.25789,Ob Koprivnici,,21,,Celje,,Ostrožno,Celje,3000,Celje,Savinjska
3000 CELJE,OB KOPRIVNICI 81,46.24988,15.25196,Ob Koprivnici,,81,,Celje,,Ostrožno,Celje,3000,Celje,Savinjska
3000 CELJE,OBLAKOVA ULICA 5,46.23463,15.26257,Oblakova ulica,,5,,Celje,,Dolgo polje,Celje,3000,Celje,Savinjska
3000 CELJE,OPEKARNIŠKA CESTA 15 A,46.24623,15.27069,Opekarniška cesta,,15,A,Celje,,Gaberje,Celje,3000,Celje,Savinjska
3000 CELJE,PLEČNIKOVA ULICA 29,46.22686,15.27788,Plečnikova ulica,,29,,Celje,,Aljažev hrib,Celje,3000,Celje,Savinjska
3000 CELJE,RAZLAGOVA ULICA 10,46.22662,15.26608,Razlagova ulica,,10,,Celje,,Center,Celje,3000,Celje,Savinjska
3000 CELJE,TRUBARJEVA ULICA 11,46.23108,15.25643,Trubarjeva ulica,,11,,Celje,,Kajuh,Celje,3000,Celje,Savinjska
3000 CELJE,ULICA BRATOV VOŠNJAKOV 12,46.24598,15.26429,Ulica bratov Vošnjakov,,12,,Celje,,Nova vas,Celje,3000,Celje,Savinjska
3000 CELJE,ULICA TONČKE ČEČEVE 9,46.23342,15.25004,Ulica Tončke Čečeve,,9,,Celje,,Savinja,Celje,3000,Celje,Savinjska
3000 CELJE,VESELOVA ULICA 13,46.23698,15.26756,Veselova ulica,,13,,Celje,,Dolgo polje,Celje,3000,Celje,Savinjska
3000 CELJE,ZAGRAD 31 C,46.21596,15.27901,Zagrad,,31,C,Celje,,Pod gradom,Celje,3000,Celje,Savinjska
3000 CELJE,ČOPOVA ULICA 20,46.23742,15.25546,Čopova ulica,,20,,Celje,,Dolgo polje,Celje,3000,Celje,Savinjska
3201 ŠMARTNO V ROŽNI DOLINI,GORICA PRI ŠMARTNEM 13,46.27219,15.23887,Gorica pri Šmartnem,,13,,Gorica pri Šmartnem,,Šmartno v Rožni dolini,Celje,3201,Šmartno v Rožni dolini,Savinjska
3204 DOBRNA,DOBRNA 50,46.33966,15.22417,Dobrna,,50,,Dobrna,,,Dobrna,3204,Dobrna,Savinjska
3204 DOBRNA,LOKOVINA 13 A,46.33308,15.21503,Lokovina,,13,A,Lokovina,,,Dobrna,3204,Dobrna,Savinjska
3205 VITANJE,NA VASI 11,46.38261,15.29604,Na vasi,,11,,Vitanje,,Trška skupnost Vitanje,Vitanje,3205,Vitanje,Savinjska
3210 SLOVENSKE KONJICE,DOBRAVA PRI KONJICAH 3 B,46.34627,15.41290,Dobrava pri Konjicah,,3,B,Dobrava pri Konjicah,,Dobrava-Gabrovlje,Slovenske Konjice,3210,Slovenske Konjice,Savinjska
3210 SLOVENSKE KONJICE,MESTNI TRG 17,46.33998,15.42862,Mestni trg,,17,,Slovenske Konjice,,Slovenske Konjice,Slovenske Konjice,3210,Slovenske Konjice,Savinjska
3210 SLOVENSKE KONJICE,POLJSKA CESTA 1,46.33774,15.42917,Poljska cesta,,1,,Slovenske Konjice,,Slovenske Konjice,Slovenske Konjice,3210,Slovenske Konjice,Savinjska
3210 SLOVENSKE KONJICE,SPODNJE PRELOGE 14,46.34432,15.40201,Spodnje Preloge,,14,,Spodnje Preloge,,Zeče,Slovenske Konjice,3210,Slovenske Konjice,Savinjska
3210 SLOVENSKE KONJICE,TEPANJSKI VRH 4 B,46.34746,15.45422,Tepanjski Vrh,,4,B,Tepanjski Vrh,,Tepanje,Slovenske Konjice,3210,Slovenske Konjice,Savinjska
3210 SLOVENSKE KONJICE,ŠOLSKA ULICA 4,46.33833,15.42010,Šolska ulica,,4,,Slovenske Konjice,,Slovenske Konjice,Slovenske Konjice,3210,Slovenske Konjice,Savinjska
3210 SLOVENSKE KONJICE,ŽIČKA CESTA 15,46.33443,15.42409,Žička cesta,,15,,Slovenske Konjice,,Slovenske Konjice,Slovenske Konjice,3210,Slovenske Konjice,Savinjska
3211 ŠKOFJA VAS,PREKORJE 53,46.26854,15.27717,Prekorje,,53,,Prekorje,,Škofja vas,Celje,3211,Škofja vas,Savinjska
3211 ŠKOFJA VAS,ZADOBROVA 49 B,46.25981,15.29581,Zadobrova,,49,B,Zadobrova,,Škofja vas,Celje,3211,Škofja vas,Savinjska
3212 VOJNIK,CELJSKA CESTA 24 B,46.29098,15.30088,Celjska cesta,,24,B,Vojnik,,Vojnik,Vojnik,3212,Vojnik,Savinjska
3212 VOJNIK,CELJSKA CESTA 26,46.29015,15.30205,Celjska cesta,,26,,Vojnik,,Vojnik,Vojnik,3212,Vojnik,Savinjska
3212 VOJNIK,CELJSKA CESTA 37,46.28391,15.30659,Celjska cesta,,37,,Vojnik,,Vojnik,Vojnik,3212,Vojnik,Savinjska
3212 VOJNIK,CESTA V TOMAŽ 6 A,46.29118,15.30770,Cesta v Tomaž,,6,A,Vojnik,,Vojnik,Vojnik,3212,Vojnik,Savinjska
3212 VOJNIK,KERŠOVA ULICA 1,46.29133,15.30397,Keršova ulica,,1,,Vojnik,,Vojnik,Vojnik,3212,Vojnik,Savinjska
3214 ZREČE,CESTA NA ROGLO 15,46.36973,15.38870,Cesta na Roglo,,15,,Zreče,,Zreče,Zreče,3214,Zreče,Savinjska
3214 ZREČE,DOBROVELJSKA CESTA 1,46.36625,15.39544,Dobroveljska cesta,,1,,Zreče,,Zreče,Zreče,3214,Zreče,Savinjska
3214 ZREČE,KOVAŠKA CESTA 22,46.37959,15.38343,Kovaška cesta,,22,,Zreče,,Zreče,Zreče,3214,Zreče,Savinjska
3214 ZREČE,KOVAŠKA CESTA 25 B,46.37116,15.39114,Kovaška cesta,,25,B,Zreče,,Zreče,Zreče,3214,Zreče,Savinjska
3220 ŠTORE,CESTA KOZJANSKEGA ODREDA 3,46.22148,15.31202,Cesta Kozjanskega odreda,,3,,Štore,,,Štore,3220,Štore,Savinjska
3230 ŠENTJUR,CESTA LEONA DOBROTINŠKA 3 B,46.21453,15.39378,Cesta Leona Dobrotinška,,3,B,Šentjur,,Šentjur-mesto,Šentjur,3230,Šentjur,Savinjska
3230 ŠENTJUR,CESTA LEONA DOBROTINŠKA 5,46.21421,15.39394,Cesta Leona Dobrotinška,,5,,Šentjur,,Šentjur-mesto,Šentjur,3230,Šentjur,Savinjska
3230 ŠENTJUR,CESTA LEONA DOBROTINŠKA 6 A,46.21416,15.39336,Cesta Leona Dobrotinška,,6,A,Šentjur,,Šentjur-mesto,Šentjur,3230,Šentjur,Savinjska
3230 ŠENTJUR,LJUBLJANSKA CESTA 6 B,46.21532,15.39121,Ljubljanska cesta,,6,B,Šentjur,,Šentjur-mesto,Šentjur,3230,Šentjur,Savinjska
3230 ŠENTJUR,SVETINOVA ULICA 1,46.22246,15.40015,Svetinova ulica,,1,,Šentjur,,Šentjur-mesto,Šentjur,3230,Šentjur,Savinjska
3230 ŠENTJUR,ULICA DUŠANA KVEDRA 27,46.21817,15.39597,Ulica Dušana Kvedra,,27,,Šentjur,,Šentjur-mesto,Šentjur,3230,Šentjur,Savinjska
3231 GROBELNO,GROBELNO - DEL 114,46.21426,15.43745,Grobelno - del,,114,,Grobelno - del,,Grobelno,Šentjur,3231,Grobelno,Savinjska
3240 ŠMARJE PRI JELŠAH,CELJSKA CESTA 14,46.22925,15.51630,Celjska cesta,,14,,Šmarje pri Jelšah,,Šmarje pri Jelšah,Šmarje pri Jelšah,3240,Šmarje pri Jelšah,Savinjska
3240 ŠMARJE PRI JELŠAH,CELJSKA CESTA 16,46.22926,15.51610,Celjska cesta,,16,,Šmarje pri Jelšah,,Šmarje pri Jelšah,Šmarje pri Jelšah,3240,Šmarje pri Jelšah,Savinjska
3240 ŠMARJE PRI JELŠAH,RAKEŽEVA ULICA 8,46.22684,15.51715,Rakeževa ulica,,8,,Šmarje pri Jelšah,,Šmarje pri Jelšah,Šmarje pri Jelšah,3240,Šmarje pri Jelšah,Savinjska
3240 ŠMARJE PRI JELŠAH,ROGAŠKA CESTA 21,46.22985,15.52162,Rogaška cesta,,21,,Šmarje pri Jelšah,,Šmarje pri Jelšah,Šmarje pri Jelšah,3240,Šmarje pri Jelšah,Savinjska
3250 ROGAŠKA SLATINA,CELJSKA CESTA 10,46.23916,15.63420,Celjska cesta,,10,,Rogaška Slatina,,Rogaška Slatina,Rogaška Slatina,3250,Rogaška Slatina,Savinjska
3250 ROGAŠKA SLATINA,CELJSKA CESTA 7,46.23915,15.63321,Celjska cesta,,7,,Rogaška Slatina,,Rogaška Slatina,Rogaška Slatina,3250,Rogaška Slatina,Savinjska
3250 ROGAŠKA SLATINA,KIDRIČEVA ULICA 53,46.22564,15.64458,Kidričeva ulica,,53,,Rogaška Slatina,,Rogaška Slatina,Rogaška Slatina,3250,Rogaška Slatina,Savinjska
3250 ROGAŠKA SLATINA,LASTINE 17,46.22959,15.64148,Lastine,,17,,Rogaška Slatina,,Rogaška Slatina,Rogaška Slatina,3250,Rogaška Slatina,Savinjska
3250 ROGAŠKA SLATINA,OB PROGI 3,46.24403,15.62204,Ob progi,,3,,Rogaška Slatina,,Rogaška Slatina,Rogaška Slatina,3250,Rogaška Slatina,Savinjska
3250 ROGAŠKA SLATINA,PARTIZANSKA CESTA 10,46.24323,15.64276,Partizanska cesta,,10,,Rogaška Slatina,,Rogaška Slatina,Rogaška Slatina,3250,Rogaška Slatina,Savinjska
3250 ROGAŠKA SLATINA,SPODNJE NEGONJE 16 C,46.25074,15.62346,Spodnje Negonje,,16,C,Spodnje Negonje,,Rogaška Slatina,Rogaška Slatina,3250,Rogaška Slatina,Savinjska
3250 ROGAŠKA SLATINA,ZDRAVILIŠKI TRG 9,46.23861,15.64079,Zdraviliški trg,,9,,Rogaška Slatina,,Rogaška Slatina,Rogaška Slatina,3250,Rogaška Slatina,Savinjska
3254 PODČETRTEK,TRŠKA CESTA 67,46.15679,15.59639,Trška cesta,,67,,Podčetrtek,,Podčetrtek,Podčetrtek,3254,Podčetrtek,Savinjska
3254 PODČETRTEK,ZDRAVILIŠKA CESTA 24,46.15826,15.60687,Zdraviliška cesta,,24,,Podčetrtek,,Podčetrtek,Podčetrtek,3254,Podčetrtek,Savinjska
3256 BISTRICA OB SOTLI,BISTRICA OB SOTLI 61,46.05571,15.66327,Bistrica ob Sotli,,61,,Bistrica ob Sotli,,,Bistrica ob Sotli,3256,Bistrica ob Sotli,Posavska
3261 LESIČNO,GUBNO 10,46.11737,15.51784,Gubno,,10,,Gubno,,Lesično,Kozje,3261,Lesično,Savinjska
3261 LESIČNO,PILŠTANJ 20,46.10006,15.52495,Pilštanj,,20,,Pilštanj,,Lesično,Kozje,3261,Lesično,Savinjska
3270 LAŠKO,KIDRIČEVA ULICA 5,46.15397,15.23683,Kidričeva ulica,,5,,Laško,,Laško,Laško,3270,Laško,Savinjska
3270 LAŠKO,KIDRIČEVA ULICA 5 B,46.15450,15.23730,Kidričeva ulica,,5,B,Laško,,Laško,Laško,3270,Laško,Savinjska
3270 LAŠKO,MESTNA ULICA 7,46.15460,15.23636,Mestna ulica,,7,,Laško,,Laško,Laško,3270,Laško,Savinjska
3270 LAŠKO,POŽENELOVA ULICA 22,46.16482,15.23049,Poženelova ulica,,22,,Laško,,Laško,Laško,3270,Laško,Savinjska
3270 LAŠKO,VALENTINIČEVA CESTA 22,46.15597,15.24091,Valentiničeva cesta,,22,,Laško,,Laško,Laško,3270,Laško,Savinjska
3270 LAŠKO,ZDRAVILIŠKA CESTA 6,46.16165,15.23209,Zdraviliška cesta,,6,,Laško,,Laško,Laško,3270,Laško,Savinjska
3272 RIMSKE TOPLICE,TOPLICE 10,46.11927,15.20326,Toplice,,10,,Rimske Toplice,,Rimske Toplice,Laško,3272,Rimske Toplice,Savinjska
3301 PETROVČE,DOBRIŠA VAS 81,46.24659,15.18210,Dobriša vas,,81,,Dobriša vas,,Petrovče,Žalec,3301,Petrovče,Savinjska
3301 PETROVČE,PETROVČE 95,46.24465,15.18767,Petrovče,,95,,Petrovče,,Petrovče,Žalec,3301,Petrovče,Savinjska
3303 GOMILSKO,GRAJSKA VAS 15 J,46.24311,15.05183,Grajska vas,,15,J,Grajska vas,,Gomilsko,Braslovče,3303,Gomilsko,Savinjska
3305 VRANSKO,VRANSKO 130 D,46.24591,14.95101,Vransko,,130,D,Vransko,,,Vransko,3305,Vransko,Savinjska
3305 VRANSKO,VRANSKO 144 A,46.24698,14.95400,Vransko,,144,A,Vransko,,,Vransko,3305,Vransko,Savinjska
3310 ŽALEC,CANKARJEVA ULICA 4,46.25240,15.16660,Cankarjeva ulica,,4,,Žalec,,Mestna skupnost Žalec,Žalec,3310,Žalec,Savinjska
3310 ŽALEC,MESTNI TRG 5,46.25295,15.16210,Mestni trg,,5,,Žalec,,Mestna skupnost Žalec,Žalec,3310,Žalec,Savinjska
3310 ŽALEC,PERNOVO 4 A,46.28516,15.19327,Pernovo,,4,A,Pernovo,,Galicija,Žalec,3310,Žalec,Savinjska
3310 ŽALEC,PREŠERNOVA ULICA 6,46.25093,15.16216,Prešernova ulica,,6,,Žalec,,Mestna skupnost Žalec,Žalec,3310,Žalec,Savinjska
3310 ŽALEC,SAVINJSKA CESTA 2,46.25214,15.16494,Savinjska cesta,,2,,Žalec,,Mestna skupnost Žalec,Žalec,3310,Žalec,Savinjska
3311 ŠEMPETER V SAVINJSKI DOLINI,RIMSKA CESTA 70,46.25651,15.12077,Rimska cesta,,70,,Šempeter v Savinj. dolini,,Šempeter,Žalec,3311,Šempeter v Savinjski dolini,Savinjska
3312 PREBOLD,GRAŠČINSKA CESTA 11,46.23604,15.09094,Graščinska cesta,,11,,Prebold,,,Prebold,3312,Prebold,Savinjska
3312 PREBOLD,LATKOVA VAS 73,46.25174,15.09745,Latkova vas,,73,,Latkova vas,,,Prebold,3312,Prebold,Savinjska
3313 POLZELA,GLAVNI TRG 13,46.27967,15.07521,Glavni trg,,13,,Polzela,,,Polzela,3313,Polzela,Savinjska
3313 POLZELA,GLAVNI TRG 15,46.27950,15.07495,Glavni trg,,15,,Polzela,,,Polzela,3313,Polzela,Savinjska
3313 POLZELA,OB ŽELEZNICI 26,46.27866,15.07283,Ob železnici,,26,,Polzela,,,Polzela,3313,Polzela,Savinjska
3313 POLZELA,POT V ŠENEK 7,46.28401,15.07471,Pot v Šenek,,7,,Polzela,,,Polzela,3313,Polzela,Savinjska
3314 BRASLOVČE,BRASLOVČE 27,46.28760,15.03997,Braslovče,,27,,Braslovče,,Braslovče,Braslovče,3314,Braslovče,Savinjska
3314 BRASLOVČE,PARIŽLJE 125,46.27792,15.06359,Parižlje,,125,,Parižlje,,Braslovče,Braslovče,3314,Braslovče,Savinjska
3320 VELENJE,CESTA BRATOV MRAVLJAKOV 13,46.36272,15.11965,Cesta bratov Mravljakov,,13,,Velenje,,Šmartno,Velenje,3320,Velenje,Savinjska
3320 VELENJE,CESTA I 23,46.35913,15.12535,Cesta I,,23,,Velenje,,Gorica,Velenje,3320,Velenje,Savinjska
3320 VELENJE,EFENKOVA CESTA 61,46.36240,15.12419,Efenkova cesta,,61,,Velenje,,Šmartno,Velenje,3320,Velenje,Savinjska
3320 VELENJE,KARDELJEV TRG 3,46.36095,15.12049,Kardeljev trg,,3,,Velenje,,Velenje - levi breg - vzhod,Velenje,3320,Velenje,Savinjska
3320 VELENJE,KIDRIČEVA CESTA 19 A,46.36353,15.11608,Kidričeva cesta,,19,A,Velenje,,Velenje - desni breg,Velenje,3320,Velenje,Savinjska
3320 VELENJE,KIDRIČEVA CESTA 23,46.36396,15.11298,Kidričeva cesta,,23,,Velenje,,Velenje - desni breg,Velenje,3320,Velenje,Savinjska
3320 VELENJE,LJUBLJANSKA CESTA 11,46.35499,15.10714,Ljubljanska cesta,,11,,Velenje,,Staro Velenje,Velenje,3320,Velenje,Savinjska
3320 VELENJE,PIREŠICA 11 A,46.34618,15.15981,Pirešica,,11,A,Pirešica,,Vinska Gora,Velenje,3320,Velenje,Savinjska
3320 VELENJE,PREŠERNOVA CESTA 9 A,46.35935,15.10963,Prešernova cesta,,9,A,Velenje,,Velenje - levi breg - zahod,Velenje,3320,Velenje,Savinjska
3320 VELENJE,SONČNI GRIČ 7,46.35393,15.12586,Sončni grič,,7,,Velenje,,Gorica,Velenje,3320,Velenje,Savinjska
3320 VELENJE,SUBOTIŠKA CESTA 12,46.36625,15.10260,Subotiška cesta,,12,,Velenje,,Stara vas,Velenje,3320,Velenje,Savinjska
3320 VELENJE,VODNIKOVA CESTA 1,46.36151,15.11636,Vodnikova cesta,,1,,Velenje,,Velenje - desni breg,Velenje,3320,Velenje,Savinjska
3325 ŠOŠTANJ,FLORJAN 165 C,46.38507,15.02767,Florjan,,165,C,Florjan,,Skorno - Florjan,Šoštanj,3325,Šoštanj,Savinjska
3325 ŠOŠTANJ,TRG JOŽETA LAMPRETA 1,46.37648,15.04850,Trg Jožeta Lampreta,,1,,Šoštanj,,Šoštanj,Šoštanj,3325,Šoštanj,Savinjska
3326 TOPOLŠICA,TOPOLŠICA 64,46.40481,15.02068,Topolšica,,64,,Topolšica,,Topolšica,Šoštanj,3326,Topolšica,Savinjska
3326 TOPOLŠICA,TOPOLŠICA 77,46.40282,15.01627,Topolšica,,77,,Topolšica,,Topolšica,Šoštanj,3326,Topolšica,Savinjska
3327 ŠMARTNO OB PAKI,ŠMARTNO OB PAKI 146 B,46.33000,15.03759,Šmartno ob Paki,,146,B,Šmartno ob Paki,,,Šmartno ob Paki,3327,Šmartno ob Paki,Savinjska
3330 MOZIRJE,HRIBERNIKOVA ULICA 4,46.34002,14.96151,Hribernikova ulica,,4,,Mozirje,,Mozirje,Mozirje,3330,Mozirje,Savinjska
3330 MOZIRJE,PODVRH 24,46.33896,14.95551,Podvrh,,24,,Mozirje,,Mozirje,Mozirje,3330,Mozirje,Savinjska
3330 MOZIRJE,SAVINJSKA CESTA 6,46.33885,14.95935,Savinjska cesta,,6,,Mozirje,,Mozirje,Mozirje,3330,Mozirje,Savinjska
3330 MOZIRJE,ŠMIHELSKA CESTA 7,46.34067,14.96434,Šmihelska cesta,,7,,Mozirje,,Mozirje,Mozirje,3330,Mozirje,Savinjska
3331 NAZARJE,ZADREČKA CESTA 14,46.31723,14.94681,Zadrečka cesta,,14,,Nazarje,,Nazarje,Nazarje,3331,Nazarje,Savinjska
3334 LUČE,LUČE 106,46.35640,14.74415,Luče,,106,,Luče,,,Luče,3334,Luče,Savinjska
3342 GORNJI GRAD,TLAKA 10,46.29728,14.80953,Tlaka,,10,,Gornji Grad,,Gornji Grad,Gornji Grad,3342,Gornji Grad,Savinjska
4000 KRANJ,BLEIWEISOVA CESTA 16,46.24823,14.35500,Bleiweisova cesta,,16,,Kranj,,Vodovodni stolp,Kranj,4000,Kranj,Gorenjska
4000 KRANJ,BLEIWEISOVA CESTA 6,46.24613,14.35528,Bleiweisova cesta,,6,,Kranj,,Vodovodni stolp,Kranj,4000,Kranj,Gorenjska
4000 KRANJ,CESTA 1. MAJA 59,46.23449,14.36147,Cesta 1. maja,,59,,Kranj,,Planina,Kranj,4000,Kranj,Gorenjska
4000 KRANJ,CESTA JAKA PLATIŠE 21,46.24110,14.37191,Cesta Jaka Platiše,,21,,Kranj,,Primskovo,Kranj,4000,Kranj,Gorenjska
4000 KRANJ,GLAVNI TRG 21,46.23936,14.35532,Glavni trg,,21,,Kranj,,Center,Kranj,4000,Kranj,Gorenjska
4000 KRANJ,GOLNIŠKA CESTA 105,46.27324,14.35145,Golniška cesta,,105,,Mlaka pri Kranju,,Kokrica,Kranj,4000,Kranj,Gorenjska
4000 KRANJ,GOSPOSVETSKA ULICA 10,46.24890,14.35325,Gosposvetska ulica,,10,,Kranj,,Zlato polje,Kranj,4000,Kranj,Gorenjska
4000 KRANJ,GOSPOSVETSKA ULICA 10 A,46.24862,14.35322,Gosposvetska ulica,,10,A,Kranj,,Zlato polje,Kranj,4000,Kranj,Gorenjska
4000 KRANJ,GOSPOSVETSKA ULICA 10 B,46.24826,14.35331,Gosposvetska ulica,,10,B,Kranj,,Zlato polje,Kranj,4000,Kranj,Gorenjska
4000 KRANJ,GOSPOSVETSKA ULICA 12,46.24804,14.35409,Gosposvetska ulica,,12,,Kranj,,Zlato polje,Kranj,4000,Kranj,Gorenjska
4000 KRANJ,GOSPOSVETSKA ULICA 9,46.24863,14.35278,Gosposvetska ulica,,9,,Kranj,,Zlato polje,Kranj,4000,Kranj,Gorenjska
4000 KRANJ,GREGORČIČEVA ULICA 10,46.24313,14.35717,Gregorčičeva ulica,,10,,Kranj,,Center,Kranj,4000,Kranj,Gorenjska
4000 KRANJ,HRASTJE 30,46.22197,14.38201,Hrastje,,30,,Hrastje,,Hrastje,Kranj,4000,Kranj,Gorenjska
4000 KRANJ,JELENČEVA ULICA 24,46.24832,14.36780,Jelenčeva ulica,,24,,Kranj,,Primskovo,Kranj,4000,Kranj,Gorenjska
4000 KRANJ,KIDRIČEVA CESTA 38 A,46.24863,14.35402,Kidričeva cesta,,38,A,Kranj,,Zlato polje,Kranj,4000,Kranj,Gorenjska
4000 KRANJ,KIDRIČEVA CESTA 51,46.25138,14.35198,Kidričeva cesta,,51,,Kranj,,Zlato polje,Kranj,4000,Kranj,Gorenjska
4000 KRANJ,KIDRIČEVA CESTA 53,46.25199,14.34933,Kidričeva cesta,,53,,Kranj,,Zlato polje,Kranj,4000,Kranj,Gorenjska
4000 KRANJ,MLAŠKA CESTA 109,46.27666,14.35313,Mlaška cesta,,109,,Mlaka pri Kranju,,Kokrica,Kranj,4000,Kranj,Gorenjska
4000 KRANJ,PANTE 11,46.23346,14.34361,Pante,,11,,Kranj,,Stražišče,Kranj,4000,Kranj,Gorenjska
4000 KRANJ,STARA CESTA 25 B,46.24141,14.35264,Stara cesta,,25,B,Kranj,,Center,Kranj,4000,Kranj,Gorenjska
4000 KRANJ,STORŽIŠKA ULICA 4,46.21864,14.37676,Storžiška ulica,,4,,Kranj,,Orehek - Drulovka,Kranj,4000,Kranj,Gorenjska
4000 KRANJ,TEKSTILNA ULICA 17,46.24628,14.36588,Tekstilna ulica,,17,,Kranj,,Primskovo,Kranj,4000,Kranj,Gorenjska
